"city_id","city_name","city_alternate_name","city_lat","city_lng"
"14256","Azadshahr","Azadshahr","34.79049","48.57011"
"18918","Protaras","Protaras","35.01250","34.05833"
"23814","Kahriz","Kahriz","34.38380","47.05530"
"24851","Nurabad","Nurabad","34.07340","47.97250"
"32723","Istgah-e Rah Ahan-e Garmsar","Istgah-e Rah Ahan-e Garmsar","35.23455","52.30942"
"32767","Qarchak","Qarchak","35.42867","51.57544"
"32909","Shahre Jadide Andisheh","Shahre Jadide Andisheh","35.68030","51.01930"
"41210","Khorramdarreh","Khorramdarreh","36.20898","49.19152"
"50672","Wanlaweyn","Wanlaweyn","2.61850","44.89380"
"52867","Qoryooley","Qoryooley","1.78784","44.52999"
"53157","Qandala","Qandala","11.47197","49.87282"
"53654","Mogadishu","Mogadishu","2.03711","45.34375"
"54225","Marka","Marka","1.71594","44.77166"
"54715","Luuq","Luuq","3.80315","42.54417"
"55671","Kismayo","Kismayo","-0.35817","42.54536"
"56166","Jilib","Jilib","0.48829","42.78535"
"56335","Jawhar","Jawhar","2.78087","45.50048"
"56399","Jamaame","Jamaame","0.06968","42.74497"
"57289","Hargeysa","Hargeysa","9.56000","44.06500"
"58933","Garoowe","Garoowe","8.40207","48.48284"
"59611","Gaalkacyo","Gaalkacyo","6.76972","47.43083"
"60019","Eyl","Eyl","7.98030","49.81640"
"62691","Ceerigaabo","Ceerigaabo","10.61616","47.36795"
"62788","Ceeldheer","Ceeldheer","3.84878","47.18064"
"63571","Buurhakaba","Buurhakaba","2.80257","44.07805"
"63689","Buulobarde","Buulobarde","3.85375","45.56744"
"63795","Burao","Burao","9.52213","45.53363"
"64013","Bosaso","Bosaso","11.28421","49.18158"
"64435","Berbera","Berbera","10.43959","45.01432"
"64460","Beledweyne","Beledweyne","4.73583","45.20361"
"64536","Baidoa","Baidoa","3.11383","43.64980"
"65170","Baardheere","Baardheere","2.34464","42.27644"
"65785","Afgooye","Afgooye","2.13810","45.12120"
"66093","Yasuj","Yasuj","30.66824","51.58796"
"69426","Zinjibar","Zinjibar","13.12871","45.38073"
"69500","Zabid","Zabid","14.19510","43.31518"
"69559","Yarim","Yarim","14.29804","44.37795"
"70225","Ta`izz","Ta`izz","13.57952","44.02091"
"70979","Sayyan","Sayyan","15.17177","44.32442"
"71137","Sanaa","Sanaa","15.35472","44.20667"
"71273","Sahar","Sahar","15.31586","44.30858"
"71334","Sa'dah","Sa'dah","16.94021","43.76393"
"72968","Ma'rib","Ma'rib","15.46253","45.32581"
"73560","Lahij","Lahij","13.05667","44.88194"
"74477","Ibb","Ibb","13.96667","44.18333"
"75337","Hajjah","Hajjah","15.69425","43.60582"
"76154","Dhi as Sufal","Dhi as Sufal","13.83446","44.11469"
"76184","Dhamar","Dhamar","14.54274","44.40514"
"76991","Bayt al Faqih","Bayt al Faqih","14.51635","43.32446"
"77408","Bajil","Bajil","15.05898","43.28731"
"77726","Ataq","Ataq","14.53767","46.83187"
"78428","'Amran","'Amran","15.65940","43.94385"
"78754","Al Mukalla","Al Mukalla","14.54248","49.12424"
"79415","Al Hudaydah","Al Hudaydah","14.79781","42.95452"
"79455","Al Hazm","Al Hazm","16.16406","44.77692"
"79836","Al Bayda","Al Bayda","13.98523","45.57272"
"81302","Tobruk","Tobruk","32.08361","23.97639"
"81604","Suluq","Suluq","31.66818","20.25205"
"87205","Darnah","Darnah","32.76704","22.63669"
"88319","Benghazi","Benghazi","32.11486","20.06859"
"88380","Az Zuwaytinah","Az Zuwaytinah","30.95220","20.12022"
"88562","At Taj","At Taj","24.20487","23.28570"
"88834","Tukrah","Tukrah","32.53414","20.57911"
"88835","Al Qubbah","Al Qubbah","32.76163","22.24237"
"88903","Al Marj","Al Marj","32.48798","20.83174"
"88962","Al Jawf","Al Jawf","24.19890","23.29093"
"89055","Al Bayda'","Al Bayda'","32.76272","21.75506"
"89087","Al Abyar","Al Abyar","32.19000","20.59653"
"89113","Ajdabiya","Ajdabiya","30.75545","20.22625"
"89570","Zaxo","Zaxo","37.14871","42.68591"
"89824","Umm Qasr","Umm Qasr","30.03620","47.91951"
"90026","Tozkhurmato","Tozkhurmato","34.88808","44.63256"
"90150","Tikrit","Tikrit","34.61581","43.67861"
"90353","Tallkayf","Tallkayf","36.49109","43.12026"
"90708","Sinah","Sinah","36.80752","43.03831"
"91597","Samarra'","Samarra'","34.19590","43.88568"
"91812","Nahiyat Saddat al Hindiyah","Nahiyat Saddat al Hindiyah","32.71557","44.27857"
"92002","Ruwandiz","Ruwandiz","36.61207","44.52372"
"92430","Al-Hamdaniya","Al-Hamdaniya","36.27093","43.37758"
"93709","Mandali","Mandali","33.74810","45.55503"
"94220","Koysinceq","Koysinceq","36.08289","44.62873"
"94298","Kifri","Kifri","34.68963","44.96057"
"94787","Kirkuk","Kirkuk","35.46806","44.39222"
"94824","Karbala","Karbala","32.61603","44.02488"
"95446","Erbil","Erbil","36.19257","44.01062"
"95788","Hit","Hit","33.63664","42.82768"
"96205","Halabjah","Halabjah","35.17778","45.98611"
"96309","Hadithah","Hadithah","34.13661","42.37727"
"96994","Dihok","Dihok","36.86709","42.98845"
"97417","Jamjamal","Jamjamal","35.53356","44.83430"
"97783","Bayji","Bayji","34.92915","43.48878"
"97990","Baqubah","Baqubah","33.75403","44.60518"
"98012","Baynjiwayn","Baynjiwayn","35.62329","45.94714"
"98112","Balad","Balad","34.01485","44.14574"
"98182","Baghdad","Baghdad","33.34058","44.40088"
"98245","Az Zubayr","Az Zubayr","30.39213","47.70175"
"98459","As Suwayrah","As Suwayrah","32.92556","44.77583"
"98463","As Sulaymaniyah","As Sulaymaniyah","35.56496","45.43290"
"98530","As Samawah","As Samawah","31.33198","45.29440"
"98589","Nahiyat ash Shinafiyah","Nahiyat ash Shinafiyah","31.58376","44.64675"
"98622","Ash Shatrah","Ash Shatrah","31.40906","46.17270"
"98629","Ash Shamiyah","Ash Shamiyah","31.96257","44.60075"
"98677","Ar Rutbah","Ar Rutbah","33.03718","40.28586"
"98685","Ar Rumaythah","Ar Rumaythah","31.52845","45.20377"
"98717","Ramadi","Ramadi","33.42056","43.30778"
"98822","'Aqrah","'Aqrah","36.73322","43.87964"
"98854","Nasiriyah","Nasiriyah","31.05799","46.25726"
"98860","Najaf","Najaf","32.02594","44.34625"
"98885","'Anat al Qadimah","'Anat al Qadimah","34.46934","41.94223"
"99010","Imam Qasim","Imam Qasim","32.29799","44.68282"
"99039","Al Musayyib","Al Musayyib","32.77872","44.29005"
"99060","Al Mishkhab","Al Mishkhab","31.80437","44.48930"
"99062","Al Miqdadiyah","Al Miqdadiyah","33.97861","44.93694"
"99071","Al Mawsil al Jadidah","Al Mawsil al Jadidah","36.33271","43.10555"
"99072","Mosul","Mosul","36.33500","43.11889"
"99131","Al Kut","Al Kut","32.51280","45.81817"
"99135","Kufa","Kufa","32.05114","44.44017"
"99169","Khalis","Khalis","33.80809","44.53343"
"99306","'Ali al Gharbi","'Ali al Gharbi","32.46186","46.68794"
"99344","Al Hindiyah","Al Hindiyah","32.54671","44.22765"
"99347","Al Hillah","Al Hillah","32.46367","44.41963"
"99350","Al Hayy","Al Hayy","32.17419","46.04345"
"99369","Al Harithah","Al Harithah","30.58481","47.76114"
"99434","Nahiyat Ghammas","Nahiyat Ghammas","31.74311","44.61960"
"99439","Nahiyat al Fuhud","Nahiyat al Fuhud","30.96972","46.72278"
"99446","Al Faw","Al Faw","29.97421","48.47309"
"99454","Al Fallujah","Al Fallujah","33.34913","43.78599"
"99532","Basrah","Basrah","30.50852","47.78040"
"99548","Al 'Aziziyah","Al 'Aziziyah","32.90941","45.06359"
"99608","Al 'Amarah","Al 'Amarah","31.83561","47.14483"
"99738","'Afak","'Afak","32.06430","45.24743"
"99759","Ad Dujayl","Ad Dujayl","33.84667","44.23444"
"99762","Ad Diwaniyah","Ad Diwaniyah","31.99289","44.92552"
"100077","Abu Ghurayb","Abu Ghurayb","33.30563","44.18477"
"100425","Yanbu","Yanbu","24.08954","38.06180"
"100926","Umm Lajj","Umm Lajj","25.02126","37.26850"
"101312","Turaif","Turaif","31.67252","38.66374"
"101322","Turabah","Turabah","21.21406","41.63310"
"101554","Tarut","Tarut","26.57332","50.03694"
"101628","Tabuk","Tabuk","28.39980","36.57151"
"101631","Tubarjal","Tubarjal","30.49987","38.21603"
"101760","Sultanah","Sultanah","24.49258","39.58572"
"102318","Sayhat","Sayhat","26.48522","50.04046"
"102451","Samitah","Samitah","16.59601","42.94435"
"102527","Sakakah","Sakakah","29.96974","40.20641"
"102585","Safwa","Safwa","26.64986","49.95223"
"102651","Sabya","Sabya","17.14950","42.62537"
"102985","Rahimah","Rahimah","26.70791","50.06194"
"103035","Rabigh","Rabigh","22.79856","39.03493"
"103369","Qal`at Bishah","Qal`at Bishah","20.00054","42.60520"
"103630","Najran","Najran","17.49326","44.12766"
"104515","Mecca","Mecca","21.42664","39.82563"
"105072","Khamis Mushait","Khamis Mushait","18.30000","42.73333"
"105299","Jizan","Jizan","16.88917","42.55111"
"105343","Jeddah","Jeddah","21.54238","39.19797"
"106281","Ha'il","Ha'il","27.52188","41.69073"
"106909","Duba","Duba","27.35134","35.69014"
"107304","Buraydah","Buraydah","26.32599","43.97497"
"107312","Abqaiq","Abqaiq","25.93710","49.67761"
"107744","Badr Hunayn","Badr Hunayn","23.78292","38.79047"
"107781","Az Zulfi","Az Zulfi","26.29945","44.81542"
"107797","Dhahran","Dhahran","26.28864","50.11396"
"107959","At Taraf","At Taraf","25.36276","49.72504"
"107968","Ta'if","Ta'if","21.27028","40.41583"
"108048","As Sulayyil","As Sulayyil","20.46067","45.57792"
"108410","Riyadh","Riyadh","24.68773","46.72185"
"108435","Ar Rass","Ar Rass","25.86944","43.49730"
"108512","Arar","Arar","30.97531","41.03808"
"108617","An Nimas","An Nimas","19.14547","42.12009"
"108648","Qurayyat","Qurayyat","31.33176","37.34282"
"108773","Al Wajh","Al Wajh","26.24551","36.45249"
"108841","Al-`Ula","Al-`Ula","26.60853","37.92316"
"108918","Qaisumah","Qaisumah","28.31117","46.12729"
"108927","Al Qatif","Al Qatif","26.52080","50.02452"
"109059","Al Munayzilah","Al Munayzilah","25.38333","49.66667"
"109101","Al Mubarraz","Al Mubarraz","25.41000","49.58083"
"109131","Al Mithnab","Al Mithnab","25.86012","44.22228"
"109223","Medina","Medina","24.46861","39.61417"
"109323","Khobar","Khobar","26.27944","50.20833"
"109380","Al Khafji","Al Khafji","28.43905","48.49132"
"109417","Al Jumum","Al Jumum","21.61694","39.69806"
"109435","Al Jubayl","Al Jubayl","27.01122","49.65825"
"109571","Al Hufuf","Al Hufuf","25.36457","49.56532"
"109878","Al Bukayriyah","Al Bukayriyah","26.14422","43.65933"
"109915","Al Battaliyah","Al Battaliyah","25.43333","49.63333"
"109953","Al Bahah","Al Bahah","20.01288","41.46767"
"110250","`Afif","`Afif","23.90650","42.91724"
"110314","Ad Dilam","Ad Dilam","23.99104","47.16181"
"110325","Ad Dawadimi","Ad Dawadimi","24.50772","44.39237"
"110336","Dammam","Dammam","26.43442","50.10326"
"110619","Abu `Arish","Abu `Arish","16.96887","42.83251"
"110690","Abha","Abha","18.21639","42.50528"
"110831","Azadshahr","Azadshahr","37.08641","55.17222"
"111421","Zarand","Zarand","30.81271","56.56399"
"111453","Zanjan","Zanjan","36.67642","48.49628"
"111822","Yazd","Yazd","31.89722","54.36750"
"112214","Varamin","Varamin","35.32420","51.64570"
"112646","Torbat-e Heydariyeh","Torbat-e Heydariyeh","35.27401","59.21949"
"112656","Tonekabon","Tonekabon","36.81626","50.87376"
"112931","Tehran","Tehran","35.69439","51.42151"
"113343","Hashtpar","Hashtpar","37.79658","48.90521"
"113491","Takestan","Takestan","36.06960","49.69590"
"113508","Takab","Takab","36.40090","47.11330"
"113632","Taft","Taft","31.74384","54.20278"
"113646","Tabriz","Tabriz","38.08000","46.29190"
"113659","Tabas","Tabas","33.59586","56.92437"
"114049","Sonqor","Sonqor","34.78187","47.59945"
"114259","Sirjan","Sirjan","29.45137","55.68090"
"114584","Shushtar","Shushtar","32.04972","48.84843"
"114593","Shush","Shush","32.19420","48.24360"
"114930","Shirvan","Shirvan","37.39669","57.92952"
"115019","Shiraz","Shiraz","29.61031","52.53113"
"115770","Shahr-e Kord","Shahr-e Kord","32.32556","50.86444"
"115781","Shahr-e Babak","Shahr-e Babak","30.11650","55.11860"
"116102","Shadegan","Shadegan","30.64924","48.66497"
"116402","Semnan","Semnan","35.57691","53.39205"
"116406","Semirom","Semirom","31.41667","51.56667"
"116667","Saveh","Saveh","35.02130","50.35660"
"116996","Sari","Sari","36.56332","53.06009"
"117392","Saqqez","Saqqez","36.24992","46.27350"
"117574","Sanandaj","Sanandaj","35.31495","46.99883"
"117656","Salmas","Salmas","38.19730","44.76530"
"117793","Shahin Dezh","Shahin Dezh","36.67930","46.56690"
"118063","Sabzevar","Sabzevar","36.21260","57.68191"
"118191","Rudsar","Rudsar","37.13761","50.28800"
"118367","Robat Karim","Robat Karim","35.48460","51.08290"
"118704","Ravar","Ravar","31.26562","56.80545"
"118743","Rasht","Rasht","37.27611","49.58862"
"118805","Ramshir","Ramshir","30.89315","49.40787"
"118826","Ramhormoz","Ramhormoz","31.27997","49.60351"
"118994","Rafsanjan","Rafsanjan","30.40670","55.99390"
"119115","Quchan","Quchan","37.10600","58.50955"
"119161","Qorveh","Qorveh","35.16640","47.80564"
"119208","Qom","Qom","34.64010","50.87640"
"119374","Qeshm","Qeshm","26.94920","56.26910"
"119505","Qazvin","Qazvin","36.26877","50.00410"
"119730","Qarah Zia' od Din","Qarah Zia' od Din","38.89150","45.02550"
"120678","Farrokh Shahr","Farrokh Shahr","32.27174","50.98008"
"120694","Qa'en","Qa'en","33.72654","59.18439"
"120931","Sarpol-e Zahab","Sarpol-e Zahab","34.46109","45.86264"
"120972","Pishva","Pishva","35.30800","51.72670"
"121110","Piranshahr","Piranshahr","36.70100","45.14130"
"121240","Paveh","Paveh","35.04340","46.35650"
"121380","Parsabad","Parsabad","39.64820","47.91740"
"121795","Oshnaviyeh","Oshnaviyeh","37.03970","45.09830"
"121801","Orumiyeh","Orumiyeh","37.55274","45.07605"
"121861","Omidiyeh","Omidiyeh","30.75972","49.70500"
"121925","Nurabad","Nurabad","30.11405","51.52174"
"121959","Nowshahr","Nowshahr","36.64852","51.49621"
"122285","Nishabur","Nishabur","36.21329","58.79575"
"122289","Neyriz","Neyriz","29.19880","54.32780"
"122397","Neka","Neka","36.65079","53.29905"
"122438","Nazarabad","Nazarabad","35.95411","50.60607"
"122698","Naqadeh","Naqadeh","36.95530","45.38800"
"122915","Nahavand","Nahavand","34.19088","48.37446"
"123485","Mohr","Mohr","27.55520","52.88360"
"123941","Minab","Minab","27.13104","57.08716"
"124085","Miandoab","Miandoab","36.96667","46.10961"
"124193","Meybod","Meybod","32.25014","54.01658"
"124274","Mahriz","Mahriz","31.58428","54.44280"
"124620","Masjed Soleyman","Masjed Soleyman","31.93640","49.30390"
"124647","Bardsir","Bardsir","29.92266","56.57433"
"124665","Mashhad","Mashhad","36.31559","59.56796"
"124778","Marivan","Marivan","35.51829","46.18298"
"124862","Marand","Marand","38.43290","45.77490"
"125185","Malayer","Malayer","34.30158","48.82166"
"125188","Malard","Malard","35.66590","50.97670"
"125446","Mahabad","Mahabad","36.76310","45.72220"
"125897","Langarud","Langarud","37.19701","50.15351"
"126409","Kuhdasht","Kuhdasht","33.53335","47.60999"
"126914","Kish","Kish","26.55778","54.01944"
"126972","Khvoy","Khvoy","38.55030","44.95210"
"127033","Khvansar","Khvansar","33.22052","50.31497"
"127319","Khorramshahr","Khorramshahr","30.44079","48.18428"
"127349","Khorramabad","Khorramabad","33.48778","48.35583"
"127403","Khomeyn","Khomeyn","33.64225","50.07890"
"128008","Khalkhal","Khalkhal","37.61890","48.52580"
"128226","Kermanshah","Kermanshah","34.31417","47.06500"
"128234","Kerman","Kerman","30.28321","57.07879"
"128321","Kazerun","Kazerun","29.61949","51.65415"
"128447","Kashmar","Kashmar","35.23831","58.46558"
"128747","Karaj","Karaj","35.83266","50.99155"
"128831","Kangavar","Kangavar","34.50430","47.96530"
"128905","Kamyaran","Kamyaran","34.79560","46.93550"
"129512","Kalaleh","Kalaleh","37.37899","55.49300"
"129933","Juybar","Juybar","36.64115","52.91244"
"130245","Javanrud","Javanrud","34.79611","46.51722"
"130802","Ilam","Ilam","33.63740","46.42270"
"131962","Harsin","Harsin","34.27210","47.58610"
"132144","Hamadan","Hamadan","34.79922","48.51456"
"132892","Gorgan","Gorgan","36.84270","54.44391"
"132938","Gonbad-e Kavus","Gonbad-e Kavus","37.25004","55.16721"
"132961","Gonabad","Gonabad","34.35287","58.68365"
"133037","Golpayegan","Golpayegan","33.45370","50.28836"
"133595","Gerash","Gerash","27.66966","54.13586"
"134217","Bandar-e Ganaveh","Bandar-e Ganaveh","29.57910","50.51700"
"134441","Fuman","Fuman","37.22400","49.31250"
"134518","Firuzabad","Firuzabad","28.84380","52.57070"
"134602","Fereydunkenar","Fereydunkenar","36.68642","52.52255"
"134721","Fasa","Fasa","28.93830","53.64820"
"134762","Farsan","Farsan","32.25694","50.56095"
"135298","Esfarayen","Esfarayen","37.07645","57.51009"
"135423","Shahrud","Shahrud","36.41819","54.97628"
"136014","Dogonbadan","Dogonbadan","30.35860","50.79810"
"136399","Delijan","Delijan","33.99050","50.68380"
"136702","Dehloran","Dehloran","32.69410","47.26790"
"136987","Dehdasht","Dehdasht","30.79490","50.56457"
"137268","Susangerd","Susangerd","31.56350","48.18958"
"137436","Darreh Shahr","Darreh Shahr","33.14447","47.37990"
"137956","Darab","Darab","28.75194","54.54444"
"138025","Damghan","Damghan","36.16790","54.34292"
"138042","Damavand","Damavand","35.71842","52.06958"
"138742","Chenaran","Chenaran","36.64546","59.12123"
"139223","Chalus","Chalus","36.65500","51.42040"
"139817","Bandar-e Bushehr","Bandar-e Bushehr","28.96840","50.83850"
"139889","Bukan","Bukan","36.52100","46.20890"
"140044","Borujerd","Borujerd","33.89730","48.75160"
"140046","Borujen","Borujen","31.96523","51.28730"
"140097","Borazjan","Borazjan","29.26990","51.21880"
"140380","Bojnurd","Bojnurd","37.47473","57.32903"
"140463","Birjand","Birjand","32.86628","59.22114"
"140521","Bijar","Bijar","35.86680","47.60506"
"140889","Bonab","Bonab","37.34040","46.05610"
"140918","Behshahr","Behshahr","36.69235","53.55262"
"140951","Behbahan","Behbahan","30.59590","50.24170"
"141584","Baneh","Baneh","35.99750","45.88530"
"141665","Bandar-e Lengeh","Bandar-e Lengeh","26.55792","54.88067"
"141679","Bandar-e Anzali","Bandar-e Anzali","37.47318","49.45785"
"141681","Bandar Abbas","Bandar Abbas","27.18650","56.28080"
"141736","Bam","Bam","29.10600","58.35700"
"142000","Bahar","Bahar","34.90720","48.44140"
"142255","Bafq","Bafq","31.60350","55.40249"
"142358","Babolsar","Babolsar","36.70251","52.65760"
"142363","Babol","Babol","36.55132","52.67895"
"142496","Azna","Azna","33.60950","48.93070"
"142554","Hashtrud","Hashtrud","37.47790","47.05080"
"142676","Astara","Astara","38.42910","48.87200"
"142679","Astaneh-ye Ashrafiyeh","Astaneh-ye Ashrafiyeh","37.26318","49.94325"
"142872","Asadabad","Asadabad","34.78241","48.12012"
"143052","Ardestan","Ardestan","33.37610","52.36940"
"143073","Ardakan","Ardakan","32.31001","54.01747"
"143083","Ardabil","Ardabil","38.24980","48.29330"
"143127","Arak","Arak","34.09174","49.68916"
"143534","Amol","Amol","36.46961","52.35072"
"143748","Alvand","Alvand","36.31870","49.16780"
"143860","Shahriar","Shahriar","35.65884","51.05775"
"143921","Aligudarz","Aligudarz","33.40063","49.69490"
"144269","Aleshtar","Aleshtar","33.86419","48.26258"
"144410","Akbarabad","Akbarabad","29.24640","52.77930"
"144443","`Ajab Shir","`Ajab Shir","37.47760","45.89430"
"144448","Ahvaz","Ahvaz","31.31901","48.68420"
"144616","Ahar","Ahar","38.47740","47.06990"
"144696","Aghajari","Aghajari","30.70060","49.83150"
"144794","Abyek","Abyek","36.06667","50.55000"
"145034","Abhar","Abhar","36.14680","49.21800"
"145233","Abdanan","Abdanan","32.99260","47.41980"
"145449","Abadeh","Abadeh","31.16080","52.65060"
"145459","Abadan","Abadan","30.33920","48.30430"
"145531","Saurimo","Saurimo","-9.66078","20.39155"
"145724","Lucapa","Lucapa","-8.41915","20.74466"
"146214","Paphos","Paphos","34.77679","32.42451"
"146268","Nicosia","Nicosia","35.17531","33.36420"
"146384","Limassol","Limassol","34.68406","33.03794"
"146400","Larnaca","Larnaca","34.92291","33.62330"
"146412","Kyrenia","Kyrenia","35.33634","33.31729"
"146617","Famagusta","Famagusta","35.12054","33.93894"
"146970","Xankandi","Xankandi","39.81770","46.75280"
"147059","Ahmadbayli","Ahmadbayli","39.87867","48.39901"
"147105","Shushi","Shushi","39.76006","46.74989"
"147271","Salyan","Salyan","39.59621","48.98479"
"147288","Saatli","Saatli","39.93214","48.36892"
"147425","Neftcala","Neftcala","39.37680","49.24700"
"147429","Nakhchivan","Nakhchivan","39.20889","45.41222"
"147622","Lankaran","Lankaran","38.75428","48.85062"
"147982","Imishli","Imishli","39.87095","48.05995"
"148106","Fizuli","Fizuli","39.60094","47.14529"
"148290","Dzhalilabad","Dzhalilabad","39.20963","48.49186"
"148340","Pushkino","Pushkino","39.45833","48.54500"
"148354","Beylagan","Beylagan","39.77556","47.61861"
"148445","Astara","Astara","38.45598","48.87498"
"148565","Sirvan","Sirvan","39.93778","48.92900"
"148619","Agdam","Agdam","39.99096","46.92736"
"148730","Zanzibar","Zanzibar","-6.16394","39.19793"
"148842","Wete","Wete","-5.05589","39.72938"
"148942","Vwawa","Vwawa","-9.11667","32.93333"
"148987","Vikindu","Vikindu","-7.00667","39.29849"
"149027","Uyovu","Uyovu","-3.28333","31.52583"
"149050","Uvinza","Uvinza","-5.10361","30.39111"
"149129","Ushirombo","Ushirombo","-3.49194","31.96389"
"149132","Usevia","Usevia","-7.10000","31.23333"
"149151","Usagara","Usagara","-2.68333","33.00000"
"149155","Usa River","Usa River","-3.36667","36.85000"
"149172","Urambo","Urambo","-5.06667","32.05000"
"149402","Tunduma","Tunduma","-9.30000","32.76667"
"149418","Tumbi","Tumbi","-5.06667","32.73333"
"149437","Tukuyu","Tukuyu","-9.25000","33.65000"
"149512","Tinde","Tinde","-3.88333","33.20000"
"149581","Tarime","Tarime","-1.35000","34.36667"
"149606","Tanga","Tanga","-5.06893","39.09875"
"149658","Tabora","Tabora","-5.01622","32.82663"
"149703","Sumbawanga","Sumbawanga","-7.96667","31.61667"
"149775","Songwa","Songwa","-3.51667","33.51667"
"149792","Somanda","Somanda","-3.36667","33.95000"
"149812","Sokoni","Sokoni","-6.43333","39.55000"
"149854","Sirari","Sirari","-1.25367","34.47596"
"149879","Singida","Singida","-4.81629","34.74358"
"149929","Sikonge","Sikonge","-5.63333","32.76667"
"150006","Shinyanga","Shinyanga","-3.66393","33.42118"
"150037","Shelui","Shelui","-4.36667","34.20000"
"150099","Sepuka","Sepuka","-4.75000","34.53333"
"150276","Same","Same","-4.06667","37.73333"
"150436","Rulenge","Rulenge","-2.71750","30.63250"
"150453","Rujewa","Rujewa","-8.70000","34.38333"
"150634","Puma","Puma","-5.00000","34.73333"
"150885","Old Shinyanga","Old Shinyanga","-3.55000","33.40000"
"150930","Nzega","Nzega","-4.21667","33.18333"
"151108","Nyamuswa","Nyamuswa","-1.90000","34.01667"
"151211","Nyalikungu","Nyalikungu","-3.18333","33.78333"
"151266","Nyakabindi","Nyakabindi","-2.63333","33.98333"
"151363","Nsunga","Nsunga","-1.14389","31.39472"
"151373","Nshamba","Nshamba","-1.79833","31.55111"
"151479","Njombe","Njombe","-9.33333","34.76667"
"151567","Nguruka","Nguruka","-5.10917","31.04194"
"151599","Ngudu","Ngudu","-2.96667","33.33333"
"151678","Ngerengere","Ngerengere","-6.75000","38.11667"
"151711","Ngara","Ngara","-2.51222","30.65583"
"151929","Nangwa","Nangwa","-4.46667","35.45000"
"151986","Namanyere","Namanyere","-7.51667","31.05000"
"152224","Mwanza","Mwanza","-2.51667","32.90000"
"152376","Mwadui","Mwadui","-3.55000","33.60000"
"152403","Mvomero","Mvomero","-6.25000","38.66667"
"152451","Musoma","Musoma","-1.50000","33.80000"
"152497","Muriti","Muriti","-1.98333","32.91667"
"152546","Mungaa","Mungaa","-4.96667","34.88333"
"152632","Muheza","Muheza","-5.16667","38.78333"
"152663","Mugumu","Mugumu","-1.85000","34.70000"
"152718","Mtwango","Mtwango","-9.01667","34.80000"
"152743","Mto wa Mbu","Mto wa Mbu","-3.35000","35.85000"
"152781","Mtinko","Mtinko","-4.55000","34.85000"
"152933","Msowero","Msowero","-6.53333","37.20000"
"153094","Mpwapwa","Mpwapwa","-6.35000","36.48333"
"153176","Mpanda","Mpanda","-6.34379","31.06951"
"153209","Moshi","Moshi","-3.35000","37.33333"
"153220","Morogoro","Morogoro","-6.82102","37.66122"
"153352","Mlowo","Mlowo","-9.00000","32.98333"
"153384","Mlimba","Mlimba","-8.80000","35.81667"
"153408","Mlangali","Mlangali","-9.78333","34.51667"
"153412","Mlandizi","Mlandizi","-6.70000","38.73333"
"153423","Mlalo","Mlalo","-4.93333","38.93333"
"153482","Mkuranga","Mkuranga","-7.11799","39.20782"
"153709","Mwandiga","Mwandiga","-4.83000","29.65806"
"153759","Misungwi","Misungwi","-2.85000","33.08333"
"153871","Mikumi","Mikumi","-7.40409","36.98309"
"154002","Mhango","Mhango","-3.28333","32.85000"
"154097","Mgandu","Mgandu","-5.95000","34.13333"
"154321","Mbuguni","Mbuguni","-3.56667","36.95000"
"154380","Mbeya","Mbeya","-8.90000","33.45000"
"154470","Mazinde","Mazinde","-4.80000","38.21667"
"154566","Matui","Matui","-4.80000","38.25000"
"154638","Matai","Matai","-8.30000","31.51667"
"154648","Maswa","Maswa","-2.68333","33.98333"
"154654","Masumbwe","Masumbwe","-3.63333","32.18333"
"154780","Maramba","Maramba","-5.05000","38.61667"
"155016","Malinyi","Malinyi","-8.93333","36.13333"
"155056","Malampaka","Malampaka","-3.13333","33.53333"
"155076","Makuyuni","Makuyuni","-4.73333","38.10000"
"155101","Makumbako","Makumbako","-8.85000","34.83333"
"155285","Mahanje","Mahanje","-9.93333","35.33333"
"155307","Kihangara","Kihangara","-2.58333","33.35000"
"155310","Magugu","Magugu","-4.01667","35.76667"
"155321","Magomeni","Magomeni","-6.80000","39.25000"
"155334","Magole","Magole","-6.37697","37.37373"
"155405","Mafinga","Mafinga","-7.25000","35.06667"
"155515","Mabama","Mabama","-5.13333","32.53333"
"155569","Lushoto","Lushoto","-4.78333","38.28333"
"155743","Lugoba","Lugoba","-6.45000","38.33333"
"155921","Liwale","Liwale","-9.76667","37.93333"
"156025","Lembeni","Lembeni","-3.78333","37.61667"
"156080","Lalago","Lalago","-3.45000","33.95000"
"156098","Laela","Laela","-8.56667","32.05000"
"156111","Kyela","Kyela","-9.58333","33.85000"
"156510","Kondoa","Kondoa","-4.90000","35.78333"
"156627","Kiwira","Kiwira","-9.17307","33.54152"
"156963","Kishapu","Kishapu","-3.61667","33.86667"
"156974","Kisesa","Kisesa","-3.08333","34.15000"
"157107","Kirando","Kirando","-7.41667","30.60000"
"157198","Kiomboi","Kiomboi","-4.26667","34.36667"
"157268","Kingori","Kingori","-3.28333","36.98333"
"157403","Kilosa","Kilosa","-6.83333","36.98333"
"157738","Kigoma","Kigoma","-4.87694","29.62667"
"157826","Kidodi","Kidodi","-7.60361","37.00438"
"157863","Kidatu","Kidatu","-7.69916","36.95722"
"157960","Kibondo","Kibondo","-3.58639","30.72028"
"157977","Kibiti","Kibiti","-7.72178","38.93749"
"158016","Kibara","Kibara","-2.15000","33.45000"
"158024","Kibakwe","Kibakwe","-6.71667","36.36667"
"158027","Kibaha","Kibaha","-6.76667","38.91667"
"158151","Katumba","Katumba","-9.23333","33.61667"
"158160","Katoro","Katoro","-3.02028","31.89583"
"158179","Katerero","Katerero","-1.40000","31.73333"
"158214","Kasulu","Kasulu","-4.57667","30.10250"
"158289","Kasamwa","Kasamwa","-2.85000","32.43333"
"158324","Kiratu","Kiratu","-3.33333","35.66667"
"158492","Kamachumu","Kamachumu","-1.61861","31.62000"
"158563","Kakonko","Kakonko","-3.28278","30.96417"
"158597","Kahama","Kahama","-3.83333","32.60000"
"158684","Kabanga","Kabanga","-2.63861","30.46778"
"158825","Izazi","Izazi","-7.20000","35.73333"
"158904","Itigi","Itigi","-5.70000","34.48333"
"159045","Isaka","Isaka","-3.90000","32.93333"
"159071","Iringa","Iringa","-7.76667","35.70000"
"159107","Ipinda","Ipinda","-9.48333","33.90000"
"159179","Ilula","Ilula","-7.67660","36.03658"
"159186","Ilongero","Ilongero","-4.66667","34.86667"
"159218","Ilembula","Ilembula","-8.90000","34.58333"
"159267","Ikungi","Ikungi","-5.13333","34.76667"
"159380","Igurusi","Igurusi","-8.85000","33.85000"
"159386","Igunga","Igunga","-4.28333","33.88333"
"159398","Igugunu","Igugunu","-4.56667","34.63333"
"159492","Ifakara","Ifakara","-8.13333","36.68333"
"159647","Hedaru","Hedaru","-4.50000","37.90000"
"159908","Geita","Geita","-2.86667","32.16667"
"159909","Geiro","Geiro","-6.15000","36.86667"
"159951","Galappo","Galappo","-4.26667","35.85000"
"160172","Dongobesh","Dongobesh","-4.06667","35.38333"
"160196","Dodoma","Dodoma","-6.17221","35.73947"
"160263","Dar es Salaam","Dar es Salaam","-6.82349","39.26951"
"160266","Dareda","Dareda","-4.21667","35.55000"
"160464","Chimala","Chimala","-8.85637","34.02393"
"160552","Chato","Chato","-2.63778","31.76694"
"160592","Chanika","Chanika","-5.41667","38.01667"
"160660","Chalinze","Chalinze","-6.63784","38.35396"
"160670","Chala","Chala","-7.58333","31.26667"
"160677","Chake Chake","Chake Chake","-5.24586","39.76659"
"160798","Butiama","Butiama","-1.76667","33.96667"
"160833","Buseresere","Buseresere","-3.02361","31.87472"
"160877","Bungu","Bungu","-7.63369","39.05818"
"160892","Bunda","Bunda","-2.05000","33.86667"
"160961","Bukoba","Bukoba","-1.33167","31.81222"
"161023","Bugarama","Bugarama","-2.87056","30.52806"
"161154","Biharamulo","Biharamulo","-2.63194","31.30889"
"161197","Basotu","Basotu","-4.36667","35.08333"
"161204","Bashanet","Bashanet","-4.23333","35.41667"
"161218","Bariadi","Bariadi","-2.80000","33.98333"
"161290","Bagamoyo","Bagamoyo","-6.44222","38.90422"
"161312","Babati","Babati","-4.21667","35.75000"
"161325","Arusha","Arusha","-3.36667","36.68333"
"161616","Balkanabat","Balkanabat","39.51075","54.36713"
"161901","Kaka","Kaka","37.34821","59.61431"
"161943","Gumdag","Gumdag","39.20611","54.59056"
"161974","Gazanjyk","Gazanjyk","39.24463","55.51536"
"162099","Abadan","Abadan","38.05415","58.19721"
"162158","Baharly","Baharly","38.43624","57.43158"
"162183","Ashgabat","Ashgabat","37.95000","58.38333"
"162199","Annau","Annau","37.88757","58.51600"
"162627","Yabrud","Yabrud","33.96921","36.65729"
"163270","Tayyibat al Imam","Tayyibat al Imam","35.26592","36.71219"
"163345","Tartouss","Tartouss","34.88902","35.88659"
"163476","Tall Rif`at","Tall Rif`at","36.47229","37.09471"
"163533","Tallkalakh","Tallkalakh","34.66842","36.25995"
"163779","Tallbisah","Tallbisah","34.84072","36.73092"
"163806","Tafas","Tafas","32.73709","36.06654"
"163808","Tadmur","Tadmur","34.56240","38.28402"
"163811","Tadif","Tadif","36.34814","37.53090"
"163915","Souran","Souran","35.29193","36.74848"
"164025","Subaykhan","Subaykhan","34.85305","40.59987"
"164328","Ash Shaykh Miskin","Ash Shaykh Miskin","32.82944","36.15933"
"164816","Saraqib","Saraqib","35.86447","36.80591"
"164898","Salqin","Salqin","36.13865","36.45244"
"164947","As Salamiyah","As Salamiyah","35.01127","37.05324"
"165060","Satita","Satita","34.82099","36.11773"
"165929","Qatana","Qatana","33.43757","36.07888"
"165997","Jasim","Jasim","32.99233","36.06018"
"166111","Qarah","Qarah","34.15558","36.74284"
"166331","Nubl","Nubl","36.37867","36.99294"
"167046","Masyaf","Masyaf","35.06530","36.34060"
"167357","Manbij","Manbij","36.52815","37.95495"
"167605","Ma`arratmisrin","Ma`arratmisrin","36.01152","36.67183"
"168325","Khan Shaykhun","Khan Shaykhun","35.44208","36.65095"
"168620","Kafr Zayta","Kafr Zayta","35.37425","36.60330"
"168629","Kafr Takharim","Kafr Takharim","36.11680","36.51522"
"168661","Kafranbel","Kafranbel","35.61376","36.56449"
"168668","Kafr Laha","Kafr Laha","34.89469","36.49582"
"169023","Jisr ash Shughur","Jisr ash Shughur","35.81418","36.31983"
"169113","Jayrud","Jayrud","33.80709","36.73861"
"169179","Jarabulus","Jarabulus","36.81750","38.01111"
"169304","Jablah","Jablah","35.36211","35.92759"
"169372","`Irbin","`Irbin","33.53719","36.36635"
"169375","Inkhil","Inkhil","33.01809","36.12828"
"169389","Idlib","Idlib","35.93062","36.63393"
"169577","Homs","Homs","34.72682","36.72339"
"169897","Harasta","Harasta","33.55869","36.36515"
"170017","Hamah","Hamah","35.13179","36.75783"
"170044","Halfaya","Halfaya","35.26014","36.60581"
"170063","Aleppo","Aleppo","36.20124","37.16117"
"170592","Douma","Douma","33.57175","36.40270"
"170654","Damascus","Damascus","33.51020","36.29128"
"170785","Dayr Hafir","Dayr Hafir","36.15694","37.70778"
"170794","Deir ez-Zor","Deir ez-Zor","35.33588","40.14084"
"170887","Ad Darbasiyah","Ad Darbasiyah","37.07279","40.65199"
"170892","Darayya","Darayya","33.45835","36.23256"
"170905","Dar'a","Dar'a","32.61889","36.10213"
"171451","Binnish","Binnish","35.95664","36.71380"
"171830","Baniyas","Baniyas","35.18188","35.94871"
"172059","Az Zabadani","Az Zabadani","33.72488","36.10050"
"172082","I`zaz","I`zaz","36.58662","37.04628"
"172256","'Ayn al 'Arab","'Ayn al 'Arab","36.89095","38.35347"
"172349","At Tall","At Tall","33.61033","36.31070"
"172374","Ath Thawrah","Ath Thawrah","35.83758","38.54828"
"172408","As Suwayda'","As Suwayda'","32.70896","36.56951"
"172469","As Sanamayn","As Sanamayn","33.07186","36.18316"
"172503","As Safirah","As Safirah","36.07696","37.37251"
"172946","Ar Rastan","Ar Rastan","34.92667","36.73241"
"172955","Ar Raqqah","Ar Raqqah","35.95283","39.00788"
"173193","An Nabk","An Nabk","34.02403","36.72848"
"173312","Al Qutayfah","Al Qutayfah","33.73848","36.60071"
"173322","Al Qusayr","Al Qusayr","34.50780","36.58029"
"173334","Al Qunaytirah","Al Qunaytirah","33.12595","35.82461"
"173361","Al Qaryatayn","Al Qaryatayn","34.22956","37.24066"
"173480","Al Mayadin","Al Mayadin","35.01982","40.45154"
"173576","Latakia","Latakia","35.53168","35.79011"
"173598","Al Kiswah","Al Kiswah","33.35810","36.24190"
"173811","Al Hasakah","Al Hasakah","36.50237","40.74772"
"173819","Al Harak","Al Harak","32.74932","36.30994"
"174018","Al Bab","Al Bab","36.37051","37.51570"
"174186","`Afrin","`Afrin","36.51194","36.86954"
"174259","Ad Dana","Ad Dana","36.21254","36.76998"
"174448","Albu Kamal","Albu Kamal","34.45226","40.91854"
"174506","Hajin","Hajin","34.69508","40.83138"
"174875","Kapan","Kapan","39.20755","46.40576"
"174895","Goris","Goris","39.51111","46.34168"
"174972","Hats'avan","Hats'avan","39.46405","45.97047"
"174979","Artashat","Artashat","39.96144","44.54447"
"174991","Ararat","Ararat","39.83069","44.70569"
"175499","Nchelenge","Nchelenge","-9.34506","28.73396"
"176146","Mbala","Mbala","-8.84024","31.36587"
"176555","Kawambwa","Kawambwa","-9.79150","29.07913"
"178202","Webuye","Webuye","0.60751","34.76966"
"178443","Wajir","Wajir","1.74710","40.05732"
"178522","Voi","Voi","-3.39605","38.55609"
"179330","Thika","Thika","-1.03326","37.06933"
"181135","Rongai","Rongai","-0.17333","35.86382"
"181501","Pumwani","Pumwani","-1.28333","36.85000"
"182701","Nyeri","Nyeri","-0.42013","36.94759"
"183027","Nyahururu","Nyahururu","0.04210","36.36734"
"184379","Narok","Narok","-1.07829","35.86012"
"184433","Nanyuki","Nanyuki","0.01667","37.07283"
"184622","Nakuru","Nakuru","-0.28333","36.06667"
"184707","Naivasha","Naivasha","-0.71667","36.43591"
"184745","Nairobi","Nairobi","-1.28333","36.81667"
"185702","Mumias","Mumias","0.33511","34.48640"
"185939","Muhoroni","Muhoroni","-0.15406","35.19878"
"186180","Moyale","Moyale","3.52160","39.05472"
"186301","Mombasa","Mombasa","-4.05466","39.66359"
"186315","Molo","Molo","-0.24790","35.73743"
"186731","Migori","Migori","-1.06343","34.47313"
"186827","Meru","Meru","0.04626","37.65587"
"187110","Mbale","Mbale","-3.40000","38.38333"
"187585","Marsabit","Marsabit","2.32839","37.98986"
"187725","Maralal","Maralal","1.09679","36.69799"
"187896","Mandera","Mandera","3.93726","41.85688"
"187968","Malindi","Malindi","-3.21799","40.11692"
"188080","Makueni","Makueni","-1.80409","37.62034"
"188492","Machakos","Machakos","-1.51667","37.26667"
"188657","Lugulu","Lugulu","0.39361","34.30528"
"189280","Lodwar","Lodwar","3.11911","35.59727"
"189741","Lamu","Lamu","-2.27169","40.90201"
"191038","Kitui","Kitui","-1.36696","38.01055"
"191220","Kitale","Kitale","1.01572","35.00622"
"191245","Kisumu","Kisumu","-0.10221","34.76171"
"191299","Kisii","Kisii","-0.68174","34.76666"
"192067","Kilifi","Kilifi","-3.63045","39.84992"
"192710","Kiambu","Kiambu","-1.16667","36.83333"
"192859","Keruguya","Keruguya","-0.49887","37.28031"
"192900","Kericho","Kericho","-0.36774","35.28314"
"193627","Karuri","Karuri","-0.70000","37.18333"
"194160","Kapenguria","Kapenguria","1.23333","35.11667"
"195272","Kakamega","Kakamega","0.28422","34.75229"
"195821","Kabarnet","Kabarnet","0.49194","35.74303"
"196231","Isiolo","Isiolo","0.35462","37.58218"
"196742","Homa Bay","Homa Bay","-0.52731","34.45714"
"197745","Garissa","Garissa","-0.45275","39.64601"
"198476","Embu","Embu","-0.53112","37.45061"
"198629","Eldoret","Eldoret","0.52036","35.26993"
"199989","Busia","Busia","0.46005","34.11169"
"200067","Bungoma","Bungoma","0.56350","34.56055"
"200787","Athi River","Athi River","-1.45630","36.97826"
"201463","Rwamagana","Rwamagana","-1.94870","30.43470"
"201521","Musanze","Musanze","-1.49984","29.63497"
"201865","Nzega","Nzega","-2.47900","29.55640"
"202061","Kigali","Kigali","-1.94995","30.05885"
"202065","Kibuye","Kibuye","-2.06028","29.34778"
"202068","Kibungo","Kibungo","-2.15970","30.54270"
"202217","Gitarama","Gitarama","-2.07444","29.75667"
"202326","Cyangugu","Cyangugu","-2.48460","28.90750"
"202905","Gisenyi","Gisenyi","-1.70278","29.25639"
"203104","Byumba","Byumba","-1.57630","30.06750"
"203112","Butare","Butare","-2.59667","29.73944"
"203717","Yangambi","Yangambi","0.76755","24.43973"
"204283","Watsa","Watsa","3.03716","29.53551"
"204318","Wamba","Wamba","2.14838","27.99466"
"204405","Uvira","Uvira","-3.39534","29.13779"
"204953","Tshikapa","Tshikapa","-6.41621","20.79995"
"205970","Sake","Sake","-1.57386","29.04339"
"207570","Mwene-Ditu","Mwene-Ditu","-7.00906","23.45278"
"207596","Mweka","Mweka","-4.85187","21.55950"
"209228","Mbuji-Mayi","Mbuji-Mayi","-6.13603","23.58979"
"210379","Lusambo","Lusambo","-4.97503","23.44391"
"210939","Luebo","Luebo","-5.35218","21.42192"
"211098","Lubao","Lubao","-5.38771","25.74885"
"211647","Lodja","Lodja","-3.52105","23.60050"
"211734","Lisala","Lisala","2.15127","21.51672"
"212360","Kongolo","Kongolo","-5.38532","27.00029"
"212730","Kisangani","Kisangani","0.51528","25.19099"
"212902","Kindu","Kindu","-2.94373","25.92237"
"213940","Kasongo","Kasongo","-4.42741","26.66656"
"214481","Kananga","Kananga","-5.89624","22.41659"
"214575","Kampene","Kampene","-3.59678","26.66715"
"214614","Kamina","Kamina","-8.73508","24.99798"
"214974","Kalemie","Kalemie","-5.94749","29.19471"
"215527","Kabinda","Kabinda","-6.13791","24.48179"
"215605","Kabare","Kabare","-2.49682","28.79081"
"215668","Kabalo","Kabalo","-6.05255","26.91430"
"215771","Isiro","Isiro","2.77391","27.61603"
"215976","Ilebo","Ilebo","-4.33111","20.58638"
"216281","Goma","Goma","-1.67409","29.22845"
"216404","Gbadolite","Gbadolite","4.27900","21.00284"
"216449","Gandajika","Gandajika","-6.74504","23.95328"
"217389","Demba","Demba","-5.49573","22.26962"
"217562","Butembo","Butembo","0.14164","29.29117"
"217570","Buta","Buta","2.78582","24.72997"
"217637","Businga","Businga","3.33863","20.88577"
"217695","Bunia","Bunia","1.55941","30.25224"
"217745","Bumba","Bumba","2.18771","22.46827"
"217831","Bukavu","Bukavu","-2.49077","28.84281"
"217834","Bukama","Bukama","-9.20443","25.85475"
"218253","Bondo","Bondo","3.81461","23.68665"
"218680","Boende","Boende","-0.28163","20.88053"
"219057","Beni","Beni","0.49113","29.47306"
"219414","Basoko","Basoko","1.23909","23.61598"
"220448","Aketi","Aketi","2.73877","23.78326"
"220782","Tadjoura","Tadjoura","11.78528","42.88444"
"221527","Obock","Obock","11.96306","43.29056"
"223817","Djibouti","Djibouti","11.58901","43.14503"
"224152","Danan","Danan","11.18333","42.93333"
"225284","'Ali Sabieh","'Ali Sabieh","11.15583","42.71250"
"225835","Yumbe","Yumbe","3.46506","31.24689"
"225858","Wobulenzi","Wobulenzi","0.72833","32.51222"
"225964","Wakiso","Wakiso","0.40444","32.45944"
"226110","Tororo","Tororo","0.69299","34.18085"
"226234","Soroti","Soroti","1.71464","33.61113"
"226823","Pallisa","Pallisa","1.14500","33.70944"
"226853","Paidha","Paidha","2.41669","30.98551"
"227528","Nyachera","Nyachera","-0.90000","30.41667"
"227592","Ntungamo","Ntungamo","-0.88333","29.65000"
"227593","Ntungamo","Ntungamo","-0.87944","30.26417"
"227812","Njeru","Njeru","0.44166","33.17917"
"227904","Nebbi","Nebbi","2.47826","31.08893"
"228227","Namasuba","Namasuba","0.68944","32.42139"
"228853","Mukono","Mukono","0.35333","32.75528"
"228971","Mubende","Mubende","0.55849","31.39489"
"229059","Moyo","Moyo","3.66088","31.72474"
"229139","Mityana","Mityana","0.41750","32.02278"
"229268","Mbarara","Mbarara","-0.60467","30.64851"
"229278","Mbale","Mbale","1.08209","34.17503"
"229362","Masindi","Masindi","1.67444","31.71500"
"229380","Masaka","Masaka","-0.33379","31.73409"
"229746","Luwero","Luwero","0.84917","32.47306"
"229911","Lugazi","Lugazi","0.36788","32.93760"
"230166","Lira","Lira","2.24990","32.89985"
"230299","Kyenjojo","Kyenjojo","0.63278","30.62139"
"230617","Kotido","Kotido","2.98056","34.13306"
"230893","Kitgum","Kitgum","3.27833","32.88667"
"231139","Kireka","Kireka","0.34750","32.64917"
"231696","Kayunga","Kayunga","0.70250","32.88861"
"232066","Kasese","Kasese","0.18333","30.08333"
"232371","Kamwenge","Kamwenge","0.18660","30.45393"
"232422","Kampala","Kampala","0.31628","32.58219"
"233070","Kabale","Kabale","-1.24857","29.98993"
"233114","Jinja","Jinja","0.43902","33.20317"
"233275","Iganga","Iganga","0.60917","33.46861"
"233299","Ibanda","Ibanda","-0.13398","30.49616"
"233312","Hoima","Hoima","1.43314","31.35241"
"233346","Gulu","Gulu","2.77457","32.29899"
"233476","Fort Portal","Fort Portal","0.66174","30.27480"
"233508","Entebbe","Entebbe","0.05621","32.47949"
"233730","Bwizibwera","Bwizibwera","-0.59167","30.62861"
"233886","Buwenge","Buwenge","0.64996","33.17128"
"234077","Busia","Busia","0.46588","34.09221"
"234092","Busembatia","Busembatia","0.77725","33.62364"
"234178","Bundibugyo","Bundibugyo","0.71117","30.06469"
"234565","Bugiri","Bugiri","0.57139","33.74167"
"235039","Arua","Arua","3.02013","30.91105"
"235489","Adjumani","Adjumani","3.37786","31.79090"
"235715","Karonga","Karonga","-9.93333","33.93333"
"237478","Mobaye","Mobaye","4.31902","21.17861"
"238566","Ippy","Ippy","6.26793","21.22468"
"239899","Bria","Bria","6.54233","21.98633"
"240498","Bangassou","Bangassou","4.74132","22.81838"
"240604","Bambari","Bambari","5.76795","20.67565"
"241131","Victoria","Victoria","-4.61667","55.45000"
"244128","Fada","Fada","17.18535","21.58114"
"245338","Am Timan","Am Timan","11.02970","20.28270"
"245785","Abeche","Abeche","13.82916","20.83240"
"246013","Wadi as Sir","Wadi as Sir","31.95450","35.81831"
"246314","Umm as Summaq","Umm as Summaq","31.88542","35.85430"
"247105","Sahab","Sahab","31.87032","36.00479"
"248370","Ma'daba","Ma'daba","31.71599","35.79392"
"248382","Ma'an","Ma'an","30.19624","35.73405"
"248414","Kurayyimah","Kurayyimah","32.27639","35.59938"
"248803","Judita","Judita","32.40792","35.70802"
"248875","Jarash","Jarash","32.28082","35.89929"
"248923","`Izra","`Izra","31.15889","35.69278"
"248946","Irbid","Irbid","32.55556","35.85000"
"250090","Zarqa","Zarqa","32.07275","36.08796"
"250152","Aydun","Aydun","32.51031","35.85444"
"250198","At Tafilah","At Tafilah","30.83752","35.60442"
"250258","As Salt","As Salt","32.03917","35.72722"
"250267","Safi","Safi","31.03608","35.46544"
"250336","Ar Ramtha","Ar Ramtha","32.55873","36.00816"
"250420","`Anjarah","`Anjarah","32.30630","35.75653"
"250441","Amman","Amman","31.95522","35.94503"
"250461","Hayy al Quwaysimah","Hayy al Quwaysimah","31.91037","35.94975"
"250582","Mafraq","Mafraq","32.34289","36.20804"
"250624","Qir Moav","Qir Moav","31.18248","35.69999"
"250637","Al Jubayhah","Al Jubayhah","32.01071","35.89802"
"250774","Aqaba","Aqaba","29.52667","35.00778"
"250799","'Ajlun","'Ajlun","32.33326","35.75279"
"251780","Voula","Voula","37.84221","23.77651"
"251833","Volos","Volos","39.36103","22.94248"
"251948","Vyronas","Vyronas","37.96105","23.75300"
"252270","Vari","Vari","37.83320","23.80311"
"252601","Tripoli","Tripoli","37.50889","22.37944"
"252664","Trikala","Trikala","39.55493","21.76837"
"252910","Thivai","Thivai","38.32500","23.31889"
"253394","Sparti","Sparti","37.07446","22.43009"
"254144","Salamina","Salamina","37.96427","23.49649"
"254352","Rethymno","Rethymno","35.36555","24.48232"
"254698","Preveza","Preveza","38.95617","20.75050"
"255229","Pyrgos","Pyrgos","37.67513","21.44102"
"255274","Piraeus","Piraeus","37.94745","23.63708"
"255377","Petroupolis","Petroupolis","38.04187","23.68494"
"255524","Peristeri","Peristeri","38.01539","23.69187"
"255588","Perama","Perama","37.96775","23.57210"
"255683","Patra","Patra","38.24444","21.73444"
"256075","Palaio Faliro","Palaio Faliro","37.92812","23.70105"
"256429","Nikaia","Nikaia","37.96667","23.65000"
"256575","Nea Smyrni","Nea Smyrni","37.94504","23.71416"
"256598","Nea Makri","Nea Makri","38.08733","23.97642"
"256601","Ilion","Ilion","38.03333","23.70000"
"256614","Nea Ionia","Nea Ionia","38.03570","23.75733"
"256621","Nea Filadelfeia","Nea Filadelfeia","38.03491","23.73811"
"256622","Nea Erythraia","Nea Erythraia","38.09270","23.82223"
"256750","Moskhaton","Moskhaton","37.94789","23.67880"
"256866","Mytilene","Mytilene","39.10772","26.55529"
"257302","Melissia","Melissia","38.05000","23.83333"
"257365","Megara","Megara","37.99471","23.34324"
"258038","Artemida","Artemida","37.96727","23.99684"
"258463","Livadeia","Livadeia","38.43616","22.87665"
"258576","Larisa","Larisa","39.63689","22.41761"
"258620","Lamia","Lamia","38.90000","22.43333"
"259128","Metamorfosi","Metamorfosi","38.06576","23.76356"
"259245","Kos","Kos","36.89333","27.28889"
"259251","Koropi","Koropi","37.89886","23.87181"
"259289","Korinthos","Korinthos","37.94007","22.95130"
"259824","Kifisia","Kifisia","38.07438","23.81106"
"259949","Cholargos","Cholargos","38.00000","23.80000"
"259973","Chios","Chios","38.36778","26.13583"
"260114","Chania","Chania","35.51124","24.02921"
"260133","Chalkida","Chalkida","38.46354","23.60284"
"260172","Khalandrion","Khalandrion","38.02369","23.80068"
"260183","Chaidari","Chaidari","38.01135","23.66597"
"260204","Keratsini","Keratsini","37.96250","23.61972"
"260989","Karditsa","Karditsa","39.36485","21.92191"
"261249","Kamateron","Kamateron","38.05586","23.70515"
"261414","Kallithea","Kallithea","37.95000","23.70000"
"261604","Kalamata","Kalamata","37.03913","22.11265"
"261614","Alimos","Alimos","37.91033","23.72361"
"261678","Kaisariani","Kaisariani","37.96340","23.76523"
"261743","Irakleio","Irakleio","38.05282","23.76523"
"261745","Irakleion","Irakleion","35.32787","25.14341"
"261779","Ioannina","Ioannina","39.66486","20.85189"
"262036","Glyfada","Glyfada","37.86289","23.75802"
"262135","Galatsi","Galatsi","38.01667","23.75000"
"262719","Elliniko","Elliniko","37.89013","23.74406"
"262752","Elefsina","Elefsina","38.04135","23.54295"
"263312","Dhafni","Dhafni","37.95002","23.73437"
"263986","Agios Dimitrios","Agios Dimitrios","37.93333","23.73333"
"264111","Agia Varvara","Agia Varvara","37.98938","23.66011"
"264194","Agia Paraskevi","Agia Paraskevi","38.01667","23.83333"
"264371","Athens","Athens","37.97945","23.71622"
"264445","Aspropyrgos","Aspropyrgos","38.06134","23.58971"
"264516","Argyroupoli","Argyroupoli","37.90594","23.75035"
"264559","Arta","Arta","39.16014","20.98561"
"264670","Argos","Argos","37.63333","22.73333"
"264888","Ano Liosia","Ano Liosia","38.08333","23.70000"
"265243","Marousi","Marousi","38.05000","23.80000"
"265252","Amaliada","Amaliada","37.79842","21.35068"
"265488","Acharnes","Acharnes","38.08333","23.73333"
"265500","Aigio","Aigio","38.24861","22.08194"
"265533","Aigaleo","Aigaleo","37.98333","23.68333"
"265560","Agrinio","Agrinio","38.62139","21.40778"
"266045","Zahle","Zahle","33.84675","35.90203"
"266826","Tripoli","Tripoli","34.43667","35.84972"
"267008","Tyre","Tyre","33.27333","35.19389"
"268064","Sidon","Sidon","33.55993","35.37564"
"268743","Ra's Bayrut","Ra's Bayrut","33.90000","35.48333"
"273140","Jounieh","Jounieh","33.98083","35.61778"
"273203","Jbail","Jbail","34.12111","35.64806"
"274874","Habbouch","Habbouch","33.40729","35.48169"
"276359","Bcharre","Bcharre","34.25083","36.01056"
"276781","Beirut","Beirut","33.88894","35.49442"
"277130","Baalbek","Baalbek","34.00583","36.21806"
"278832","En Naqoura","En Naqoura","33.11806","35.13972"
"278913","Nabatiye et Tahta","Nabatiye et Tahta","33.37889","35.48389"
"281102","Rafah","Rafah","31.28700","34.25952"
"281109","An Nusayrat","An Nusayrat","31.44861","34.39250"
"281124","Khan Yunis","Khan Yunis","31.34018","34.30627"
"281129","Jabalya","Jabalya","31.52720","34.48347"
"281133","Gaza","Gaza","31.50000","34.46667"
"281141","Dayr al Balah","Dayr al Balah","31.41783","34.35033"
"281145","Bayt Lahya","Bayt Lahya","31.54640","34.49514"
"281146","Bayt Hanun","Bayt Hanun","31.53530","34.53579"
"281148","Bani Suhayla","Bani Suhayla","31.34337","34.32337"
"281161","Al Burayj","Al Burayj","31.43944","34.40306"
"281165","`Abasan al Kabirah","`Abasan al Kabirah","31.31913","34.34005"
"281184","Jerusalem","Jerusalem","31.76904","35.21633"
"281292","Yuta","Yuta","31.44590","35.09443"
"281577","Tulkarm","Tulkarm","32.31037","35.02863"
"281581","Tubas","Tubas","32.32091","35.36989"
"281793","Sa`ir","Sa`ir","31.57855","35.14017"
"282239","Ramallah","Ramallah","31.89964","35.20422"
"282457","Qalqilyah","Qalqilyah","32.18966","34.97063"
"282476","Qabatiyah","Qabatiyah","32.41035","35.28087"
"282615","Nablus","Nablus","32.22111","35.25444"
"283506","Janin","Janin","32.45943","35.30086"
"283621","Idhna","Idhna","31.55874","34.97436"
"283806","Halhul","Halhul","31.58029","35.10178"
"284011","Dura","Dura","31.50777","35.02929"
"284315","Bethlehem","Bethlehem","31.70487","35.20376"
"284324","Bayt Jala","Bayt Jala","31.71545","35.18788"
"284431","Bani Na`im","Bani Na`im","31.51591","35.16416"
"284446","Balatah","Balatah","32.21207","35.28561"
"284486","Az Zahiriyah","Az Zahiriyah","31.40967","34.97329"
"284583","As Samu`","As Samu`","31.39671","35.06611"
"284890","Ar Ram wa Dahiyat al Barid","Ar Ram wa Dahiyat al Barid","31.84945","35.23420"
"284899","Jericho","Jericho","31.86667","35.45000"
"284999","Al Yamun","Al Yamun","32.48563","35.23011"
"285066","Hebron","Hebron","31.52935","35.09380"
"285108","Al Birah","Al Birah","31.91001","35.21645"
"285111","Al `Ayzariyah","Al `Ayzariyah","31.77078","35.26917"
"285603","Janub as Surrah","Janub as Surrah","29.26917","47.97806"
"285629","Hawalli","Hawalli","29.33278","48.02861"
"285663","Bayan","Bayan","29.30320","48.04881"
"285704","As Salimiyah","As Salimiyah","29.33389","48.07611"
"285726","Ar Rumaythiyah","Ar Rumaythiyah","29.31167","48.07417"
"285728","Ar Riqqah","Ar Riqqah","29.14583","48.09472"
"285778","Al Manqaf","Al Manqaf","29.09611","48.13278"
"285782","Al Mahbulah","Al Mahbulah","29.14500","48.13028"
"285787","Kuwait City","Kuwait City","29.36972","47.97833"
"285799","Al Jahra'","Al Jahra'","29.33750","47.65806"
"285811","Al Fahahil","Al Fahahil","29.08250","48.13028"
"285812","Al Fintas","Al Fintas","29.17389","48.12111"
"285815","Al Farwaniyah","Al Farwaniyah","29.27750","47.95861"
"285839","Al Ahmadi","Al Ahmadi","29.07694","48.08389"
"285856","Ad Dasmah","Ad Dasmah","29.36500","48.00139"
"286245","Sur","Sur","22.56667","59.52889"
"286282","Sohar","Sohar","24.34745","56.70937"
"286293","Sufalat Sama'il","Sufalat Sama'il","23.31667","58.01667"
"286402","Shinas","Shinas","24.74333","56.46583"
"286621","Salalah","Salalah","17.01505","54.09237"
"286647","Saham","Saham","24.17222","56.88861"
"286987","Nizwa","Nizwa","22.93333","57.53333"
"287286","Muscat","Muscat","23.58413","58.40778"
"287614","Khasab","Khasab","26.17993","56.24774"
"287814","Izki","Izki","22.93333","57.76667"
"287830","`Ibri","`Ibri","23.22573","56.51572"
"287832","Ibra'","Ibra'","22.69057","58.53337"
"288721","Bidbid","Bidbid","23.40787","58.12830"
"288764","Bawshar","Bawshar","23.55563","58.39890"
"288789","Barka'","Barka'","23.70739","57.88908"
"288899","Bahla'","Bahla'","22.97339","57.29958"
"288902","Badiyah","Badiyah","22.45000","58.80000"
"288955","As Suwayq","As Suwayq","23.84944","57.43861"
"288967","Seeb","Seeb","23.67027","58.18911"
"289011","Rustaq","Rustaq","23.39083","57.42444"
"289174","Al Liwa'","Al Liwa'","24.53611","56.56556"
"289199","Al Khaburah","Al Khaburah","23.98864","57.09838"
"289317","Al Buraymi","Al Buraymi","24.25088","55.79312"
"289433","Adam","Adam","22.37560","57.52334"
"289523","Umm Salal Muhammad","Umm Salal Muhammad","25.41524","51.40647"
"289888","Ar Rayyan","Ar Rayyan","25.29194","51.42444"
"289915","Al Wakrah","Al Wakrah","25.17151","51.60337"
"289962","Al Khawr","Al Khawr","25.68389","51.50583"
"290030","Doha","Doha","25.27932","51.52245"
"290104","Sitrah","Sitrah","26.15472","50.62056"
"290187","Madinat `Isa","Madinat `Isa","26.17361","50.54778"
"290215","Jidd Hafs","Jidd Hafs","26.21861","50.54778"
"290247","Madinat Hamad","Madinat Hamad","26.11528","50.50694"
"290269","Dar Kulayb","Dar Kulayb","26.06861","50.50389"
"290332","Al Muharraq","Al Muharraq","26.25722","50.61194"
"290340","Manama","Manama","26.22787","50.58565"
"290594","Umm al Qaywayn","Umm al Qaywayn","25.56473","55.55517"
"291074","Ras al-Khaimah","Ras al-Khaimah","25.78953","55.94320"
"291696","Khawr Fakkan","Khawr Fakkan","25.33132","56.34199"
"292223","Dubai","Dubai","25.06570","55.17128"
"292231","Dibba Al-Fujairah","Dibba Al-Fujairah","25.59246","56.26176"
"292239","Dibba Al-Hisn","Dibba Al-Hisn","25.61955","56.27291"
"292672","Sharjah","Sharjah","25.33737","55.41206"
"292688","Ar Ruways","Ar Ruways","24.11028","52.73056"
"292878","Al Fujayrah","Al Fujayrah","25.11641","56.34141"
"292913","Al Ain","Al Ain","24.19167","55.76056"
"292932","Ajman","Ajman","25.41111","55.43504"
"292953","Adh Dhayd","Adh Dhayd","25.28812","55.88157"
"292968","Abu Dhabi","Abu Dhabi","24.46667","54.36667"
"293100","Safed","Safed","32.96465","35.49600"
"293207","Yehud","Yehud","32.03317","34.89091"
"293222","Yavne","Yavne","31.88078","34.73843"
"293253","Yafo","Yafo","32.05043","34.75224"
"293286","Umm el Fahm","Umm el Fahm","32.51725","35.15349"
"293308","Tirat Karmel","Tirat Karmel","32.76021","34.97183"
"293322","Tiberias","Tiberias","32.79221","35.53124"
"293397","Tel Aviv","Tel Aviv","32.08088","34.78057"
"293420","maalot Tarshiha","maalot Tarshiha","33.01667","35.26667"
"293426","Tamra","Tamra","32.85301","35.19870"
"293619","Sederot","Sederot","31.52500","34.59693"
"293655","Sakhnin","Sakhnin","32.86422","35.29707"
"293690","Rosh Ha'Ayin","Rosh Ha'Ayin","32.09556","34.95664"
"293703","Rishon LeZiyyon","Rishon LeZiyyon","31.97102","34.78939"
"293768","Ramla","Ramla","31.92923","34.86563"
"293783","Ramat HaSharon","Ramat HaSharon","32.14613","34.83940"
"293788","Ramat Gan","Ramat Gan","32.08227","34.81065"
"293807","Ra'anana","Ra'anana","32.18360","34.87386"
"293822","Qiryat Yam","Qiryat Yam","32.84966","35.06973"
"293825","Qiryat Shemona","Qiryat Shemona","33.20733","35.57212"
"293831","Qiryat Mozqin","Qiryat Mozqin","32.83706","35.07760"
"293842","Qiryat Gat","Qiryat Gat","31.60998","34.76422"
"293844","Qiryat Bialik","Qiryat Bialik","32.82750","35.08583"
"293845","Qiryat Ata","Qiryat Ata","32.81149","35.11323"
"293896","Qalansuwa","Qalansuwa","32.28493","34.98106"
"293918","Petah Tiqwa","Petah Tiqwa","32.08707","34.88747"
"293962","Or Yehuda","Or Yehuda","32.02923","34.85788"
"293992","Ofaqim","Ofaqim","31.31410","34.62025"
"294068","Netivot","Netivot","31.42305","34.58911"
"294071","Netanya","Netanya","32.33291","34.85992"
"294074","Ness Ziona","Ness Ziona","31.92933","34.79868"
"294078","Nesher","Nesher","32.76622","35.04425"
"294098","Nazareth","Nazareth","32.69925","35.30483"
"294117","Nahariya","Nahariya","33.01135","35.09467"
"294210","Migdal Ha`Emeq","Migdal Ha`Emeq","32.67597","35.23986"
"294244","Mevo Betar","Mevo Betar","31.72177","35.10669"
"294387","Maghar","Maghar","32.88984","35.40703"
"294421","Lod","Lod","31.94670","34.89030"
"294514","Kfar Saba","Kfar Saba","32.17500","34.90694"
"294577","Karmi'el","Karmi'el","32.91708","35.30501"
"294604","Kafr Qasim","Kafr Qasim","32.11406","34.97624"
"294608","Kafr Manda","Kafr Manda","32.81034","35.26009"
"294610","Kafr Kanna","Kafr Kanna","32.74660","35.34242"
"294622","Judeida Makr","Judeida Makr","32.92820","35.15705"
"294751","Holon","Holon","32.01034","34.77918"
"294760","Hod HaSharon","Hod HaSharon","32.15934","34.89320"
"294778","Herzliyya","Herzliyya","32.16627","34.82536"
"294801","Haifa","Haifa","32.81841","34.98850"
"294946","Hadera","Hadera","32.44192","34.90390"
"294981","Giv`at Shemu'el","Giv`at Shemu'el","32.07817","34.84858"
"294999","Giv`atayim","Giv`atayim","32.07225","34.81253"
"295127","Tirah","Tirah","32.23410","34.95023"
"295130","Et Taiyiba","Et Taiyiba","32.26616","35.00893"
"295174","Er Reina","Er Reina","32.72339","35.31622"
"295277","Eilat","Eilat","29.55805","34.94821"
"295328","Dimona","Dimona","31.07079","35.03269"
"295365","Daliyat el Karmil","Daliyat el Karmil","32.69383","35.04686"
"295432","Bet Shemesh","Bet Shemesh","31.73072","34.99293"
"295435","Bet She'an","Bet She'an","32.49728","35.49632"
"295514","Bene Beraq","Bene Beraq","32.08074","34.83380"
"295530","Beersheba","Beersheba","31.25181","34.79130"
"295548","Bat Yam","Bat Yam","32.02379","34.75185"
"295620","Ashqelon","Ashqelon","31.66926","34.57149"
"295629","Ashdod","Ashdod","31.79213","34.64966"
"295657","'Arad","'Arad","31.25882","35.21282"
"295721","`Akko","`Akko","32.92814","35.07647"
"295739","`Afula `Illit","`Afula `Illit","32.63221","35.32533"
"296173","Yuksekova","Yuksekova","37.57362","44.28716"
"296562","Yozgat","Yozgat","39.82000","34.80444"
"296832","Yesilli","Yesilli","37.33813","40.81739"
"296852","Erzin","Erzin","36.95348","36.19839"
"296895","Yerkoy","Yerkoy","39.63806","34.46722"
"297090","Didim","Didim","37.38496","27.25643"
"297564","Yatagan","Yatagan","37.34025","28.14279"
"297789","Yalvac","Yalvac","38.29556","31.17778"
"297917","Yahyali","Yahyali","38.10228","35.35704"
"298033","Viransehir","Viransehir","37.22349","39.75519"
"298088","Varto","Varto","39.17375","41.45402"
"298117","Van","Van","38.49457","43.38323"
"298230","Cimin","Cimin","39.70947","39.70015"
"298299","Usak","Usak","38.67351","29.40580"
"298316","Urla","Urla","38.32292","26.76403"
"298326","UErguep","UErguep","38.62960","34.91199"
"298333","Sanliurfa","Sanliurfa","37.16708","38.79392"
"298806","Turgutlu","Turgutlu","38.49533","27.69970"
"298846","Tunceli","Tunceli","39.09921","39.54351"
"298935","Torbali","Torbali","38.15190","27.36223"
"299137","Tire","Tire","38.08877","27.73508"
"299445","Tekirova","Tekirova","36.50170","30.52723"
"299545","Tavsanli","Tavsanli","39.54237","29.49866"
"299582","Tatvan","Tatvan","38.49221","42.28269"
"299817","Tarsus","Tarsus","36.91766","34.89277"
"299900","Talas","Talas","38.69080","35.55380"
"300058","Susurluk","Susurluk","39.91361","28.15778"
"300075","Suruc","Suruc","36.97612","38.42533"
"300352","Sorgun","Sorgun","39.81012","35.18596"
"300371","Soma","Soma","39.18554","27.60945"
"300377","Solhan","Solhan","38.96525","41.05443"
"300399","Soeke","Soeke","37.74820","27.40614"
"300614","Siverek","Siverek","37.75503","39.31667"
"300619","Sivas","Sivas","39.74833","37.01611"
"300640","Sirnak","Sirnak","37.51393","42.45432"
"300791","Simav","Simav","39.08820","28.97767"
"300796","Silvan","Silvan","38.13708","41.00817"
"300797","Silopi","Silopi","37.24379","42.46345"
"300808","Silifke","Silifke","36.37778","33.93444"
"300822","Siirt","Siirt","37.92930","41.94134"
"301010","Seydisehir","Seydisehir","37.41926","31.84527"
"301089","Serinyol","Serinyol","36.36139","36.21361"
"301101","Serik","Serik","36.91694","31.09889"
"301116","Sereflikochisar","Sereflikochisar","38.93925","33.53860"
"301172","Senirkent","Senirkent","38.10444","30.54861"
"301209","Semdinli","Semdinli","37.30514","44.57420"
"301256","Selcuk","Selcuk","37.95137","27.36849"
"301350","Seferihisar","Seferihisar","38.19750","26.83881"
"301537","Sarkisla","Sarkisla","39.35186","36.40976"
"301539","Sarkikaraagac","Sarkikaraagac","38.07944","31.36639"
"301827","Saraykoy","Saraykoy","37.92448","28.92516"
"301911","Sandikli","Sandikli","38.46472","30.26946"
"302043","Salihli","Salihli","38.48258","28.14774"
"302355","Reyhanli","Reyhanli","36.26791","36.56747"
"302525","Polatli","Polatli","39.57715","32.14132"
"302800","Pazarcik","Pazarcik","37.48685","37.29961"
"302819","Patnos","Patnos","39.22493","42.85693"
"302824","Pasinler","Pasinler","39.97975","41.66997"
"303195","Osmaniye","Osmaniye","37.07417","36.24778"
"303290","Ortakoy","Ortakoy","38.73728","34.03866"
"303354","Ortaca","Ortaca","36.83915","28.76457"
"303700","OEdemis","OEdemis","38.22780","27.96955"
"303750","Nusaybin","Nusaybin","37.07028","41.21465"
"303798","Nizip","Nizip","37.00972","37.79417"
"303827","Nigde","Nigde","37.96583","34.67935"
"303831","Nevsehir","Nevsehir","38.62500","34.71222"
"303873","Nazilli","Nazilli","37.91631","28.32225"
"304013","Mut","Mut","36.64389","33.43885"
"304081","Mus","Mus","38.73163","41.48482"
"304184","Mugla","Mugla","37.21807","28.36650"
"304196","Mucur","Mucur","39.06147","34.38286"
"304355","Milas","Milas","37.31639","27.78389"
"304382","Midyat","Midyat","37.41908","41.33909"
"304531","Mercin","Mercin","36.79526","34.61792"
"304612","Menemen","Menemen","38.60754","27.06938"
"304782","Marmaris","Marmaris","36.85500","28.27417"
"304797","Mardin","Mardin","37.31309","40.74357"
"304827","Manisa","Manisa","38.61202","27.42647"
"304854","Manavgat","Manavgat","36.78667","31.44306"
"304916","Malazgirt","Malazgirt","39.14650","42.53536"
"304922","Malatya","Malatya","38.35018","38.31667"
"304964","Mahmutlar","Mahmutlar","36.49463","32.09085"
"305089","Lice","Lice","38.45821","40.63888"
"305268","Kutahya","Kutahya","39.42417","29.98333"
"305359","Kusadasi","Kusadasi","37.85562","27.25660"
"305532","Kurtalan","Kurtalan","37.92533","41.68493"
"305680","Beykonak","Beykonak","36.32573","30.30302"
"305742","Kulu","Kulu","39.09513","33.07989"
"305750","Kulp","Kulp","38.49754","41.00668"
"305810","Kula","Kula","38.54726","28.64976"
"306041","Kozluk","Kozluk","38.19118","41.47775"
"306112","Kozan","Kozan","37.45517","35.81573"
"306207","Kovancilar","Kovancilar","38.71882","39.86268"
"306474","Korkuteli","Korkuteli","37.06498","30.19565"
"306571","Konya","Konya","37.87135","32.48464"
"307084","Kiziltepe","Kiziltepe","37.18836","40.57723"
"307211","Serinhisar","Serinhisar","37.58105","29.26639"
"307515","Kirsehir","Kirsehir","39.14583","34.16389"
"307623","Kirkagac","Kirkagac","39.10638","27.66925"
"307654","Kirikkale","Kirikkale","39.84528","33.50639"
"307657","Kirikhan","Kirikhan","36.49939","36.35755"
"307864","Kilis","Kilis","36.71611","37.11500"
"308024","Keskin","Keskin","39.67306","33.61361"
"308220","Kemer","Kemer","36.59778","30.56056"
"308224","Kemalpasa","Kemalpasa","38.42621","27.41731"
"308464","Kayseri","Kayseri","38.73222","35.48528"
"309415","Karapinar","Karapinar","37.71596","33.55064"
"309527","Karaman","Karaman","37.18111","33.21500"
"309647","Agri","Agri","39.71944","43.05139"
"309663","Karakocan","Karakocan","38.95178","40.02706"
"310004","Karacoban","Karacoban","39.34364","42.09918"
"310641","Kaman","Kaman","39.35750","33.72389"
"310855","Kahta","Kahta","37.78552","38.62370"
"310859","Kahramanmaras","Kahramanmaras","37.58470","36.92641"
"310892","Kadirli","Kadirli","37.37389","36.09611"
"310907","Kadinhani","Kadinhani","38.23972","32.21139"
"311046","Izmir","Izmir","38.41273","27.13838"
"311073","Isparta","Isparta","37.76444","30.55222"
"311111","Iskenderun","Iskenderun","36.58718","36.17347"
"311314","Incirliova","Incirliova","37.85222","27.72361"
"311453","Imamoglu","Imamoglu","37.26506","35.65717"
"311553","Ilgin","Ilgin","38.27917","31.91389"
"311665","Igdir","Igdir","39.92371","44.04500"
"311704","Idil","Idil","37.33481","41.88944"
"312024","Hizan","Hizan","38.22498","42.41830"
"312114","Hinis","Hinis","39.35766","41.69253"
"312134","Hilvan","Hilvan","37.58687","38.95505"
"312899","Hadim","Hadim","36.98776","32.45674"
"313013","Hacilar","Hacilar","38.64631","35.44937"
"313331","Guroymak","Guroymak","38.57580","42.01558"
"314136","Golbasi","Golbasi","37.78361","37.63667"
"314188","Goksun","Goksun","38.02096","36.49730"
"314648","Genc","Genc","38.74773","40.55343"
"314665","Gemerek","Gemerek","39.18342","36.07189"
"314716","Gediz","Gediz","38.99389","29.39131"
"314812","Gazipasa","Gazipasa","36.26942","32.31792"
"314830","Gaziantep","Gaziantep","37.05944","37.38250"
"314903","Foca","Foca","38.67030","26.75656"
"314967","Fethiye","Fethiye","36.64038","29.12758"
"315061","Ezine","Ezine","39.78561","26.34083"
"315202","Eskisehir","Eskisehir","39.77667","30.52056"
"315368","Erzurum","Erzurum","39.90861","41.27694"
"315373","Erzincan","Erzincan","39.73919","39.49015"
"315401","Ermenek","Ermenek","36.64043","32.89179"
"315468","Ergani","Ergani","38.26899","39.75446"
"315498","Eregli","Eregli","37.51333","34.04672"
"315515","Erdemli","Erdemli","36.60498","34.30836"
"315530","Ercis","Ercis","39.02587","43.35964"
"315621","Emirdag","Emirdag","39.01972","31.15000"
"315639","Emet","Emet","39.34300","29.25847"
"315697","Elmali","Elmali","36.73583","29.91775"
"315720","Elmadag","Elmadag","39.92083","33.23083"
"315758","Eleskirt","Eleskirt","39.79803","42.67574"
"315795","Elbistan","Elbistan","38.20591","37.19830"
"315808","Elazig","Elazig","38.67431","39.22321"
"315905","Egirdir","Egirdir","37.87462","30.85042"
"315985","Edremit","Edremit","39.59611","27.02444"
"316102","Dursunbey","Dursunbey","39.58596","28.62568"
"316284","Dortyol","Dortyol","36.83917","36.23025"
"316411","Dogubayazit","Dogubayazit","39.54694","44.08417"
"316541","Diyarbakir","Diyarbakir","37.91363","40.21721"
"316542","Diyadin","Diyadin","39.54056","43.67135"
"316634","Dinar","Dinar","38.06500","30.16557"
"316795","Develi","Develi","38.39056","35.49222"
"317109","Denizli","Denizli","37.77417","29.08750"
"317241","Demirci","Demirci","39.04607","28.65889"
"317587","Dargecit","Dargecit","37.54616","41.71652"
"317588","Darende","Darende","38.54583","37.50583"
"317844","Cumra","Cumra","37.57320","32.77446"
"317851","Menderes","Menderes","38.24963","27.13429"
"318137","Hakkari","Hakkari","37.57444","43.74083"
"318253","Cizre","Cizre","37.33024","42.18484"
"318372","Cine","Cine","37.61266","28.05912"
"318668","Ceylanpinar","Ceylanpinar","36.84722","40.05000"
"318675","Ceyhan","Ceyhan","37.02472","35.81750"
"318755","Cesme","Cesme","38.32614","26.30574"
"318766","Cermik","Cermik","38.13538","39.44500"
"319104","Cay","Cay","38.59167","31.02861"
"320004","Caglayancerit","Caglayancerit","37.74523","37.28618"
"320369","Burhaniye","Burhaniye","39.50041","26.97269"
"320392","Burdur","Burdur","37.72028","30.29083"
"320448","Bulanik","Bulanik","39.08656","42.27158"
"320533","Bucak","Bucak","37.45917","30.59500"
"320552","Bozyazi","Bozyazi","36.10820","32.96113"
"320557","Bozuyuk","Bozuyuk","39.90778","30.03667"
"320581","Bozova","Bozova","37.36250","38.52667"
"320871","Bor","Bor","37.89056","34.55889"
"320879","Bolvadin","Bolvadin","38.71111","31.04861"
"320995","Bodrum","Bodrum","37.03833","27.42917"
"321025","Bitlis","Bitlis","38.40115","42.10784"
"321031","Bismil","Bismil","37.84514","40.65931"
"321062","Birecik","Birecik","37.02577","37.97841"
"321082","Bingol","Bingol","38.88472","40.49389"
"321136","Bigadic","Bigadic","39.39250","28.13111"
"321191","Beysehir","Beysehir","37.67735","31.72458"
"321337","Besni","Besni","37.69278","37.86111"
"321426","Bergama","Bergama","39.12074","27.18052"
"321572","Belen","Belen","36.48866","36.19489"
"321580","Belek","Belek","36.86278","31.05556"
"321786","Bayindir","Bayindir","38.21741","27.64744"
"321836","Batman","Batman","37.88738","41.13221"
"321929","Baskil","Baskil","38.56866","38.81634"
"322051","Banaz","Banaz","38.73707","29.75194"
"322165","Balikesir","Balikesir","39.64917","27.88611"
"322391","Bahce","Bahce","37.19724","36.57658"
"322673","Ayvalik","Ayvalik","39.31905","26.69540"
"322830","Aydin","Aydin","37.84501","27.83963"
"323094","Askale","Askale","39.92083","40.69500"
"323777","Antalya","Antalya","36.90812","30.69556"
"323779","Antakya","Antakya","36.20655","36.15722"
"323786","Ankara","Ankara","39.91987","32.85427"
"323828","Anamur","Anamur","36.07508","32.83691"
"324106","Aliaga","Aliaga","38.79975","26.97203"
"324172","Alasehir","Alasehir","38.35083","28.51718"
"324190","Alanya","Alanya","36.54375","31.99982"
"324490","Aksehir","Aksehir","38.35750","31.41639"
"324496","Aksaray","Aksaray","38.37255","34.02537"
"324698","Akhisar","Akhisar","38.91852","27.84006"
"324768","Akdagmadeni","Akdagmadeni","39.66028","35.88361"
"324944","Akcakale","Akcakale","36.71111","38.94750"
"325103","Ahlat","Ahlat","38.74890","42.48007"
"325303","Afyonkarahisar","Afyonkarahisar","38.75667","30.54333"
"325304","Afsin","Afsin","38.24769","36.91399"
"325330","Adiyaman","Adiyaman","37.76441","38.27629"
"325336","Adilcevaz","Adilcevaz","38.79911","42.73159"
"325363","Adana","Adana","37.00167","35.32889"
"325579","Ziway","Ziway","7.93333","38.71667"
"325780","Yirga `Alem","Yirga `Alem","6.75000","38.41667"
"326036","Yabelo","Yabelo","4.88333","38.08333"
"326206","Werota","Werota","11.91667","37.70000"
"326308","Wenji","Wenji","8.45000","39.28333"
"327694","Tippi","Tippi","7.20000","35.45000"
"328689","Shashemene","Shashemene","7.20000","38.60000"
"328709","Shambu","Shambu","9.56667","37.10000"
"328716","Shakiso","Shakiso","5.75000","38.91667"
"329114","Sebeta","Sebeta","8.91667","38.61667"
"329586","Robit","Robit","12.01667","39.63333"
"330120","Nejo","Nejo","9.50000","35.50000"
"330186","Nazret","Nazret","8.55000","39.26667"
"330491","Mojo","Mojo","8.58679","39.12111"
"330546","Massawa","Massawa","15.60811","39.47455"
"330764","Metu","Metu","8.30000","35.58333"
"330811","Metahara","Metahara","8.90000","39.91667"
"331038","Mendi","Mendi","9.80000","35.10000"
"331180","Mek'ele","Mek'ele","13.49667","39.47528"
"331416","Maych'ew","Maych'ew","12.78750","39.54222"
"332746","Korem","Korem","12.50583","39.52278"
"332880","K'olito","K'olito","7.31667","38.08333"
"333103","Kibre Mengist","Kibre Mengist","5.88333","38.98333"
"333287","Keren","Keren","15.77792","38.45107"
"333356","Kemise","Kemise","10.71668","39.86997"
"333373","Kombolcha","Kombolcha","11.08155","39.74339"
"333750","Jinka","Jinka","5.65000","36.65000"
"333772","Jimma","Jimma","7.67344","36.83441"
"333795","Jijiga","Jijiga","9.35000","42.80000"
"334227","Inda Silase","Inda Silase","14.10307","38.28289"
"335035","Harar","Harar","9.31387","42.11815"
"335288","Hagere Hiywet","Hagere Hiywet","8.98333","37.85000"
"336014","Gondar","Gondar","12.60000","37.46667"
"336350","Goba","Goba","7.01667","39.98333"
"336372","Waliso","Waliso","8.53417","37.96515"
"336454","Ginir","Ginir","7.13952","40.71083"
"336496","Gimbi","Gimbi","9.17031","35.83491"
"336931","Genet","Genet","9.06667","38.50000"
"337010","Gelemso","Gelemso","8.81667","40.51667"
"337152","Gebre Guracha","Gebre Guracha","9.80000","38.40000"
"337405","Gambela","Gambela","8.25000","34.58333"
"337712","Finote Selam","Finote Selam","10.70000","37.26667"
"337771","Fiche","Fiche","9.80000","38.73333"
"337853","Felege Neway","Felege Neway","6.30000","36.88333"
"338554","Dubti","Dubti","11.73292","41.08200"
"338726","Dodola","Dodola","6.98333","39.18333"
"338832","Dire Dawa","Dire Dawa","9.59306","41.86611"
"338998","Dila","Dila","6.41667","38.31667"
"339219","Dese","Dese","11.13333","39.63333"
"339448","Dembi Dolo","Dembi Dolo","8.53333","34.80000"
"339666","Bishoftu","Bishoftu","8.75225","38.97846"
"339686","Debre Tabor","Debre Tabor","11.85000","38.01667"
"339708","Debre Mark'os","Debre Mark'os","10.35000","37.73333"
"339734","Debre Birhan","Debre Birhan","9.67954","39.53262"
"339823","Debark'","Debark'","13.15611","37.89806"
"341297","Butajira","Butajira","8.11667","38.36667"
"341397","Bure","Bure","10.70000","37.06667"
"341742","Bonga","Bonga","7.28333","36.23333"
"341877","Boditi","Boditi","6.96667","37.86667"
"342190","Bichena","Bichena","10.45000","38.20000"
"342559","Bedesa","Bedesa","8.90000","40.78333"
"342567","Bedele","Bedele","8.45600","36.35302"
"342641","Bati","Bati","11.19152","40.01675"
"342711","Barentu","Barentu","15.10582","37.59067"
"342856","Bako","Bako","5.78333","36.56667"
"342884","Bahir Dar","Bahir Dar","11.59364","37.39077"
"343137","Hawassa","Hawassa","7.06205","38.47635"
"343292","Asosa","Asosa","10.06667","34.53333"
"343300","Asmara","Asmara","15.33805","38.93184"
"343386","Assab","Assab","13.00917","42.73944"
"343402","Asbe Teferi","Asbe Teferi","9.08569","40.86708"
"343409","Asaita","Asaita","11.56838","41.43869"
"343413","Asasa","Asasa","7.10000","39.20000"
"343593","Areka","Areka","7.06667","37.70000"
"343663","Arba Minch","Arba Minch","6.03333","37.55000"
"344420","Axum","Axum","14.12109","38.72337"
"344620","Hagere Maryam","Hagere Maryam","5.63418","38.23603"
"344661","Agaro","Agaro","7.85000","36.65000"
"344901","Mendefera","Mendefera","14.88722","38.81528"
"344923","Adis Zemen","Adis Zemen","12.11667","37.78333"
"344979","Addis Ababa","Addis Ababa","9.02497","38.74689"
"345149","Adigrat","Adigrat","14.27700","39.46200"
"345353","Addiet Canna","Addiet Canna","11.26667","37.48333"
"345704","Abomsa","Abomsa","9.98333","39.98333"
"346030","Zifta","Zifta","30.71420","31.24425"
"347236","Toukh","Toukh","30.35394","31.20071"
"347497","Tanda","Tanda","30.78847","31.00192"
"347542","Tamiyah","Tamiyah","29.47639","30.96119"
"347591","Talkha","Talkha","31.05390","31.37787"
"347612","Tala","Tala","30.68025","30.94292"
"347634","Tahta","Tahta","26.76930","31.50214"
"347749","Sumusta as Sultani","Sumusta as Sultani","28.91667","30.85000"
"347796","Sohag","Sohag","26.55695","31.69478"
"348112","Sidi Salim","Sidi Salim","31.27133","30.78617"
"349114","Shirbin","Shirbin","31.19688","31.52430"
"349156","Shibin al Qanatir","Shibin al Qanatir","30.31269","31.32018"
"349158","Shibin al Kawm","Shibin al Kawm","30.55258","31.00904"
"349715","Samannud","Samannud","30.96160","31.24069"
"349717","Samalut","Samalut","28.31214","30.71007"
"350203","Rosetta","Rosetta","31.39951","30.41718"
"350207","Ras Gharib","Ras Gharib","28.35831","33.07829"
"350370","Quwaysina","Quwaysina","30.56482","31.15777"
"350376","Qutur","Qutur","30.97225","30.95614"
"350422","Kousa","Kousa","25.91407","32.76362"
"350550","Qina","Qina","26.16418","32.72671"
"350789","Qalyub","Qalyub","30.17922","31.20560"
"351434","Naj` Hammadi","Naj` Hammadi","26.04949","32.24142"
"352344","Minyat an Nasr","Minyat an Nasr","31.12624","31.64313"
"352354","Munuf","Munuf","30.46597","30.93199"
"352628","Matay","Matay","28.41899","30.77924"
"352679","Mashtul as Suq","Mashtul as Suq","30.36056","31.37760"
"352733","Mersa Matruh","Mersa Matruh","31.35290","27.23725"
"352913","Manfalut","Manfalut","27.31040","30.97004"
"352951","Mallawi","Mallawi","27.73140","30.84165"
"353219","Madinat Sittah Uktubar","Madinat Sittah Uktubar","29.81667","31.05000"
"353802","Kawm Umbu","Kawm Umbu","24.47669","32.94626"
"353828","Kawm Hamadah","Kawm Hamadah","30.76095","30.69733"
"354105","Kafr Saqr","Kafr Saqr","30.79336","31.62575"
"354365","Kafr az Zayyat","Kafr az Zayyat","30.82480","30.81805"
"354502","Kafr ash Shaykh","Kafr ash Shaykh","31.11174","30.93991"
"354775","Kafr ad Dawwar","Kafr ad Dawwar","31.13379","30.12969"
"354981","Juhaynah","Juhaynah","26.67319","31.49760"
"355026","Jirja","Jirja","26.33826","31.89161"
"355392","`Izbat al Burj","`Izbat al Burj","31.50840","31.84106"
"355420","Itsa","Itsa","29.23760","30.78944"
"355449","Isna","Isna","25.29336","32.55402"
"355628","Idku","Idku","31.30730","30.29810"
"355635","Idfu","Idfu","24.97916","32.87722"
"355648","Ibshaway","Ibshaway","29.35805","30.68142"
"355795","Halwan","Halwan","29.84144","31.30084"
"355939","Hihya","Hihya","30.67130","31.58801"
"356000","Hawsh `Isa","Hawsh `Isa","30.91280","30.29019"
"356806","Fuwwah","Fuwwah","31.20365","30.54908"
"356933","Farshut","Farshut","26.05494","32.16329"
"356945","Faraskur","Faraskur","31.32977","31.71507"
"356989","Faqus","Faqus","30.72816","31.79697"
"358048","Damietta","Damietta","31.41648","31.81332"
"358095","Diyarb Najm","Diyarb Najm","30.75438","31.44016"
"358108","Disuq","Disuq","31.13259","30.64784"
"358115","Dishna","Dishna","26.12467","32.47598"
"358172","Dikirnis","Dikirnis","31.08898","31.59478"
"358269","Dayrut","Dayrut","27.55602","30.80764"
"358274","Dayr Mawas","Dayr Mawas","27.64176","30.84662"
"358448","Damanhur","Damanhur","31.03408","30.46823"
"358600","Bush","Bush","29.14816","31.12733"
"358619","Port Said","Port Said","31.25654","32.28411"
"358620","Safaga","Safaga","26.74906","33.93891"
"358821","Bilqas","Bilqas","31.21452","31.35798"
"358840","Bilbays","Bilbays","30.42039","31.56223"
"358970","Basyun","Basyun","30.93976","30.81338"
"359173","Bani Suwayf","Bani Suwayf","29.07441","31.09785"
"359212","Bani Mazar","Bani Mazar","28.50360","30.80040"
"359280","Banha","Banha","30.45906","31.17858"
"359493","Zagazig","Zagazig","30.58768","31.50200"
"359576","Awsim","Awsim","30.12303","31.13571"
"359710","At Tall al Kabir","At Tall al Kabir","30.54323","31.78504"
"359783","Asyut","Asyut","27.18096","31.18368"
"359792","Aswan","Aswan","24.09082","32.89942"
"359796","Suez","Suez","29.97371","32.52627"
"359900","As Saff","As Saff","29.56472","31.28111"
"359953","Ash Shuhada'","Ash Shuhada'","30.59618","30.89875"
"360048","Ashmun","Ashmun","30.29735","30.97641"
"360464","Al Wasitah","Al Wasitah","29.33778","31.20556"
"360502","Luxor","Luxor","25.69893","32.64210"
"360526","Al Qusiyah","Al Qusiyah","27.44020","30.81841"
"360531","Al Qusayr","Al Qusayr","26.10426","34.27793"
"360542","Al Qurayn","Al Qurayn","30.61618","31.73514"
"360612","Al Qanayat","Al Qanayat","30.61880","31.46099"
"360615","Al Qanatir al Khayriyah","Al Qanatir al Khayriyah","30.19327","31.13703"
"360630","Cairo","Cairo","30.06263","31.24967"
"360686","Al Minya","Al Minya","28.10988","30.75030"
"360716","Al Matariyah","Al Matariyah","31.18287","32.03108"
"360754","Al Manzalah","Al Manzalah","31.15823","31.93600"
"360761","Al Mansurah","Al Mansurah","31.03637","31.38069"
"360773","Al Manshah","Al Manshah","26.47686","31.80350"
"360829","Al Mahallah al Kubra","Al Mahallah al Kubra","30.97063","31.16690"
"360923","Al Kharijah","Al Kharijah","25.45141","30.54635"
"360928","Al Khankah","Al Khankah","30.21035","31.36812"
"360995","Giza","Giza","30.00808","31.21093"
"361029","Al Jammaliyah","Al Jammaliyah","31.18065","31.86497"
"361055","Ismailia","Ismailia","30.60427","32.27225"
"361058","Alexandria","Alexandria","31.21564","29.95527"
"361103","Al Ibrahimiyah","Al Ibrahimiyah","30.71877","31.56299"
"361179","Al Hawamidiyah","Al Hawamidiyah","29.90000","31.25000"
"361213","Al Hamul","Al Hamul","31.31146","31.14766"
"361291","Hurghada","Hurghada","27.25738","33.81291"
"361320","Al Fayyum","Al Fayyum","29.30995","30.84180"
"361329","Al Fashn","Al Fashn","28.82431","30.89948"
"361394","Al Bawiti","Al Bawiti","28.34919","28.86591"
"361435","Al Balyana","Al Balyana","26.23568","32.00347"
"361457","Al Bajur","Al Bajur","30.43026","31.03681"
"361478","Al Badari","Al Badari","26.99257","31.41554"
"361495","Al `Ayyat","Al `Ayyat","29.61972","31.25750"
"361546","Arish","Arish","31.13159","33.79844"
"361661","Akhmim","Akhmim","26.56217","31.74503"
"361702","Aja","Aja","30.94162","31.29039"
"361827","Ad Dilinjat","Ad Dilinjat","30.82791","30.53633"
"362004","Abu Tij","Abu Tij","27.04411","31.31897"
"362277","Abu Qurqas","Abu Qurqas","27.93120","30.83841"
"362485","Abu Kabir","Abu Kabir","30.72508","31.67148"
"362882","Abu al Matamir","Abu al Matamir","30.91018","30.17438"
"362973","Abnub","Abnub","27.26960","31.15105"
"363243","Sarande","Sarande","39.87556","20.00528"
"363533","Zalingei","Zalingei","12.90918","23.47058"
"363619","Yei","Yei","4.09444","30.67639"
"363656","Yambio","Yambio","4.57083","28.39417"
"363807","Winejok","Winejok","9.01222","27.57081"
"363885","Wau","Wau","7.70111","27.98972"
"364103","Wad Medani","Wad Medani","14.40118","33.51989"
"364367","Aweil","Aweil","8.76194","27.39194"
"364706","Umm Ruwaba","Umm Ruwaba","12.90610","31.21580"
"365137","Omdurman","Omdurman","15.64453","32.47773"
"365742","Torit","Torit","4.41177","32.57046"
"365763","Tonj","Tonj","7.27389","28.67750"
"366323","Tokar","Tokar","18.42540","37.72900"
"366426","Tandalti","Tandalti","13.01667","31.86667"
"366847","Singa","Singa","13.14830","33.93117"
"367308","Shendi","Shendi","16.69150","33.43410"
"367544","Sawakin","Sawakin","19.10590","37.33210"
"367644","Sinnar","Sinnar","13.56907","33.56718"
"367927","Rumbek","Rumbek","6.80619","29.67742"
"368277","Rabak","Rabak","13.18087","32.73999"
"370737","Malakal","Malakal","9.53342","31.66049"
"370838","Maiurno","Maiurno","13.41667","33.66667"
"371760","Kosti","Kosti","13.16290","32.66347"
"371870","Kuraymah","Kuraymah","18.55000","31.85000"
"372386","Kinana","Kinana","14.03610","33.17120"
"372753","Kassala","Kassala","15.45099","36.39998"
"373141","Kadugli","Kadugli","11.01111","29.71833"
"373303","Juba","Juba","4.85165","31.58247"
"374739","Gogrial","Gogrial","8.53324","28.10037"
"375495","Pajok","Pajok","3.86512","32.48212"
"376332","Doka","Doka","13.51667","35.76667"
"376450","Dilling","Dilling","12.05000","29.65000"
"377039","Port Sudan","Port Sudan","19.61745","37.21644"
"377241","Bor","Bor","6.20889","31.55861"
"377690","Berber","Berber","18.02158","33.98299"
"377724","Barah","Barah","13.70000","30.36667"
"378231","Atbara","Atbara","17.70217","33.98638"
"378271","As Suki","As Suki","13.31667","33.88333"
"378459","Ar Ruseris","Ar Ruseris","11.86590","34.38690"
"378493","Ar Rahad","Ar Rahad","12.71667","30.65000"
"378699","An Nuhud","An Nuhud","12.70000","28.43333"
"379003","El Obeid","El Obeid","13.18421","30.21669"
"379014","Al Qitena","Al Qitena","14.86480","32.36680"
"379062","Al Qadarif","Al Qadarif","14.03493","35.38344"
"379102","Al Mijlad","Al Mijlad","11.03333","27.73333"
"379149","Al Manaqil","Al Manaqil","14.24590","32.98910"
"379252","Khartoum","Khartoum","15.55177","32.53241"
"379303","Geneina","Geneina","13.45262","22.44725"
"379406","Al Hilaliyya","Al Hilaliyya","14.93980","33.23400"
"379416","Al Hawatah","Al Hawatah","13.41667","34.63333"
"379427","Al Hasaheisa","Al Hasaheisa","14.75264","33.29836"
"379555","El Fasher","El Fasher","13.62793","25.34936"
"379630","El Bauga","El Bauga","18.26197","33.90812"
"380129","Ad Douiem","Ad Douiem","14.00120","32.31160"
"380148","El Daein","El Daein","11.46186","26.12583"
"380151","Ad Dindar","Ad Dindar","13.20000","34.16667"
"380173","Ed Damer","Ed Damer","17.59898","33.97205"
"380174","Ad-Damazin","Ad-Damazin","11.78910","34.35920"
"380348","Abu Zabad","Abu Zabad","12.35000","29.25000"
"380757","Abu Jibeha","Abu Jibeha","11.45620","31.22850"
"383388","Siaya","Siaya","0.06116","34.28823"
"385038","Ar Rifa'","Ar Rifa'","26.13000","50.55500"
"387958","Salwa","Salwa","29.29583","48.07861"
"388065","Ar Rabiyah","Ar Rabiyah","29.29500","47.93306"
"388349","Al Basrah al Qadimah","Al Basrah al Qadimah","30.50316","47.81507"
"400666","Rodos","Rodos","36.43556","28.22199"
"400769","Laascaanood","Laascaanood","8.47738","47.35971"
"401202","Pasargad","Pasargad","30.20194","53.18000"
"406993","Eqbaliyeh","Eqbaliyeh","35.30220","51.53580"
"410096","Ash Shafa","Ash Shafa","21.07210","40.31185"
"411849","Yanqul","Yanqul","23.59051","56.55007"
"412800","Sabah as Salim","Sabah as Salim","29.25722","48.05722"
"415189","Aden","Aden","12.77944","45.03667"
"417594","Shahreza","Shahreza","32.03389","51.87944"
"418521","Rehnan","Rehnan","32.68325","51.60158"
"418571","Qahderijan","Qahderijan","32.57670","51.45500"
"418606","Najafabad","Najafabad","32.63440","51.36680"
"418710","Khomeyni Shahr","Khomeyni Shahr","32.68560","51.53609"
"418723","Kelishad va Sudarjan","Kelishad va Sudarjan","32.55118","51.52758"
"418851","Falavarjan","Falavarjan","32.55530","51.50973"
"418863","Isfahan","Isfahan","32.65246","51.67462"
"418868","Dowlatabad","Dowlatabad","32.79978","51.69553"
"418896","Dorcheh Piaz","Dorcheh Piaz","32.61528","51.55556"
"419435","Az Zarqa","Az Zarqa","31.20864","31.63528"
"422232","Makamba","Makamba","-4.13480","29.80400"
"423328","Bururi","Bururi","-3.94877","29.62438"
"425378","Bujumbura","Bujumbura","-3.38220","29.36440"
"425551","Muramvya","Muramvya","-3.26820","29.60790"
"426272","Gitega","Gitega","-3.42640","29.93080"
"426700","Ruyigi","Ruyigi","-3.47639","30.24861"
"430569","Ngozi","Ngozi","-2.90750","29.83060"
"430952","Kayanza","Kayanza","-2.92210","29.62930"
"431748","Muyinga","Muyinga","-2.84510","30.34140"
"433635","Rutana","Rutana","-3.92790","29.99200"
"438400","Denizciler","Denizciler","36.64110","36.21418"
"442301","Batikent","Batikent","39.96833","32.73083"
"447273","Dalaman","Dalaman","36.76591","28.80280"
"448149","Sinjar","Sinjar","36.32090","41.87656"
"452949","Udomlya","Udomlya","57.87944","34.99250"
"453754","Valmiera","Valmiera","57.54108","25.42751"
"454310","Ventspils","Ventspils","57.38988","21.57288"
"454768","Tukums","Tukums","56.96694","23.15528"
"455898","Salaspils","Salaspils","56.86014","24.36544"
"456172","Riga","Riga","56.94600","24.10589"
"456202","Rezekne","Rezekne","56.51028","27.34000"
"457065","Ogre","Ogre","56.81620","24.61401"
"457954","Liepaja","Liepaja","56.51667","21.01667"
"459201","Jurmala","Jurmala","56.96800","23.77038"
"459279","Jelgava","Jelgava","56.65000","23.71278"
"459283","Jekabpils","Jekabpils","56.49903","25.85735"
"460413","Daugavpils","Daugavpils","55.88333","26.53333"
"460570","Cesis","Cesis","57.31188","25.27456"
"461698","Sosnovka","Sosnovka","60.01667","30.35000"
"461699","Sasovo","Sasovo","54.35369","41.91986"
"461740","Zyuzino","Zyuzino","55.65608","37.56846"
"461835","Zyablikovo","Zyablikovo","55.61667","37.76667"
"461910","Zverevo","Zverevo","48.02108","40.12282"
"461920","Zvenigorod","Zvenigorod","55.73401","36.85918"
"462444","Zlatoust","Zlatoust","55.17111","59.65083"
"462522","Zimovniki","Zimovniki","47.14740","42.47210"
"462745","Zhulebino","Zhulebino","55.70000","37.85000"
"462755","Zhukovskiy","Zhukovskiy","55.59528","38.12028"
"462822","Zhukovka","Zhukovka","53.53395","33.72798"
"462984","Zhirnovsk","Zhirnovsk","50.98448","44.77347"
"463082","Zhigulevsk","Zhigulevsk","53.39972","49.49528"
"463217","Zherdevka","Zherdevka","51.84861","41.46056"
"463340","Zheleznovodsk","Zheleznovodsk","44.13944","43.01972"
"463343","Zheleznogorsk","Zheleznogorsk","52.33100","35.37110"
"463355","Zheleznodorozhnyy","Zheleznodorozhnyy","55.74400","38.01684"
"463637","Zernograd","Zernograd","46.84518","40.30834"
"463824","Zelenokumsk","Zelenokumsk","44.40694","43.88056"
"463829","Zelenograd","Zelenograd","55.98250","37.18139"
"463835","Zelenodolsk","Zelenodolsk","55.84376","48.51784"
"463885","Zelenchukskaya","Zelenchukskaya","43.85804","41.58940"
"464101","Zavolzh'ye","Zavolzh'ye","56.64051","43.39446"
"464625","Zarechnyy","Zarechnyy","53.20356","45.19227"
"464687","Zaraysk","Zaraysk","54.76050","38.87841"
"464790","Zapolyarnyy","Zapolyarnyy","69.41541","30.81355"
"465057","Zamoskvorech'ye","Zamoskvorech'ye","55.73333","37.63333"
"465543","Zainsk","Zainsk","55.31950","52.06942"
"466215","Yur'yev-Pol'skiy","Yur'yev-Pol'skiy","56.50339","39.67911"
"466806","Yoshkar-Ola","Yoshkar-Ola","56.63877","47.89078"
"466885","Yeysk","Yeysk","46.70550","38.27390"
"466989","Yessentukskaya","Yessentukskaya","44.03280","42.88130"
"466990","Yessentuki","Yessentuki","44.04444","42.86056"
"467120","Yershov","Yershov","51.35130","48.27660"
"467525","Yemva","Yemva","62.58999","50.85939"
"467854","Yelizavetinskaya","Yelizavetinskaya","45.04616","38.79491"
"467978","Yelets","Yelets","52.62366","38.50169"
"468063","Yelan'","Yelan'","50.94900","43.73781"
"468082","Yelabuga","Yelabuga","55.76127","52.06493"
"468250","Yegor'yevsk","Yegor'yevsk","55.38283","39.03233"
"468307","Yegorlykskaya","Yegorlykskaya","46.56564","40.65621"
"468390","Yefremov","Yefremov","53.14806","38.09924"
"468657","Yasnyy","Yasnyy","51.03330","59.87420"
"468671","Yasnogorsk","Yasnogorsk","54.48082","37.69854"
"468809","Yasenevo","Yasenevo","55.60686","37.51991"
"468866","Yartsevo","Yartsevo","55.06667","32.69639"
"468902","Yaroslavl","Yaroslavl","57.62987","39.87368"
"469005","Yaransk","Yaransk","57.30331","47.88611"
"469178","Yanaul","Yanaul","56.27510","54.93380"
"469707","Yagry","Yagry","64.59417","39.81028"
"469844","Yablonovskiy","Yablonovskiy","44.98901","38.94324"
"470252","Vyshniy Volochek","Vyshniy Volochek","57.59125","34.56453"
"470338","Vyselki","Vyselki","45.58128","39.66409"
"470444","Vyksa","Vyksa","55.31750","42.17444"
"470451","Vykhino-Zhulebino","Vykhino-Zhulebino","55.70196","37.81178"
"470546","Vyborg","Vyborg","60.70763","28.75283"
"470666","Vyazniki","Vyazniki","56.24057","42.15563"
"470676","Vyaz'ma","Vyaz'ma","55.21039","34.29508"
"470734","Vyatskiye Polyany","Vyatskiye Polyany","56.22602","51.06557"
"471101","Vsevolozhsk","Vsevolozhsk","60.01512","30.67314"
"471430","Votkinsk","Votkinsk","57.04865","53.98717"
"471456","Vostryakovo","Vostryakovo","55.66667","37.45000"
"471457","Vostryakovo","Vostryakovo","55.39934","37.80829"
"471656","Voskresensk","Voskresensk","55.31733","38.65264"
"472045","Voronezh","Voronezh","51.67204","39.18430"
"472072","Altuf'yevskiy","Altuf'yevskiy","55.88333","37.58333"
"472079","Vorob'yovo","Vorob'yovo","55.71667","37.53333"
"472231","Volzhskiy","Volzhskiy","48.78583","44.77973"
"472234","Volzhsk","Volzhsk","55.86638","48.35940"
"472278","Vol'sk","Vol'sk","52.04541","47.37993"
"472433","Volokolamsk","Volokolamsk","56.03361","35.96944"
"472459","Vologda","Vologda","59.22390","39.88398"
"472722","Volkhov","Volkhov","59.92580","32.33819"
"472732","Nagornyy","Nagornyy","55.65000","37.61667"
"472750","Volgorechensk","Volgorechensk","57.43931","41.15553"
"472757","Volgograd","Volgograd","48.71939","44.50183"
"472761","Volgodonsk","Volgodonsk","47.51361","42.15139"
"473127","Novovladykino","Novovladykino","55.85000","37.58333"
"473247","Vladimir","Vladimir","56.13655","40.39658"
"473249","Vladikavkaz","Vladikavkaz","43.03667","44.66778"
"473778","Vidnoye","Vidnoye","55.55239","37.70967"
"473788","Vichuga","Vichuga","57.21276","41.93012"
"473972","Veshnyaki","Veshnyaki","55.72393","37.81952"
"475777","Vereshchagino","Vereshchagino","58.07894","54.65570"
"475881","Venev","Venev","54.35533","38.26843"
"475938","Vel'sk","Vel'sk","61.07006","42.09830"
"476062","Velikiy Ustyug","Velikiy Ustyug","60.76186","46.31352"
"476077","Velikiye Luki","Velikiye Luki","56.34000","30.54517"
"476368","Vatutino","Vatutino","55.88441","37.69055"
"477192","Valuyki","Valuyki","50.20350","38.10670"
"477301","Valday","Valday","57.97472","33.25250"
"477377","Vagonoremont","Vagonoremont","55.90000","37.55000"
"477494","Uzlovaya","Uzlovaya","53.98179","38.17118"
"477626","Uvarovo","Uvarovo","51.98486","42.26147"
"477656","Uva","Uva","56.99081","52.18517"
"478044","Ust'-Labinsk","Ust'-Labinsk","45.21077","39.68914"
"478071","Ust'-Katav","Ust'-Katav","54.93660","58.17570"
"478130","Ust'-Dzheguta","Ust'-Dzheguta","44.08340","41.97630"
"478317","Usman'","Usman'","52.04662","39.72880"
"478544","Uryupinsk","Uryupinsk","50.80470","42.01380"
"478581","Urus-Martan","Urus-Martan","43.13053","45.53791"
"478724","Uritsk","Uritsk","59.83889","30.17528"
"479028","Unecha","Unecha","52.84591","32.67394"
"479123","Ulyanovsk","Ulyanovsk","54.32824","48.38657"
"479411","Ukhta","Ukhta","63.56705","53.68348"
"479532","Uglich","Uglich","57.52750","38.33167"
"479561","Ufa","Ufa","54.74306","55.96779"
"479687","Uchkeken","Uchkeken","43.93778","42.51167"
"479703","Uchaly","Uchaly","54.35806","59.43611"
"479704","Uchaly","Uchaly","54.29960","59.45210"
"479933","Tyrnyauz","Tyrnyauz","43.38278","42.91833"
"480060","Tver","Tver","56.85836","35.90057"
"480089","Tuymazy","Tuymazy","54.60666","53.70970"
"480122","Tutayev","Tutayev","57.88529","39.54060"
"480562","Tula","Tula","54.19609","37.61822"
"480685","Tuchkovo","Tuchkovo","55.60111","36.46806"
"480716","Tuapse","Tuapse","44.10530","39.08020"
"480876","Tsimlyansk","Tsimlyansk","47.64611","42.10194"
"481350","Trubchevsk","Trubchevsk","52.57980","33.76440"
"481453","Troparevo","Troparevo","55.65625","37.48496"
"481605","Troitskaya","Troitskaya","43.30664","44.98395"
"481608","Troitsk","Troitsk","55.48498","37.30736"
"481964","Tosno","Tosno","59.54000","30.87750"
"481985","Torzhok","Torzhok","57.04360","34.96221"
"482260","Tomilino","Tomilino","55.65619","37.94713"
"482283","Tol'yatti","Tol'yatti","53.53030","49.34610"
"482965","Timashevsk","Timashevsk","45.61694","38.94528"
"483019","Tikhvin","Tikhvin","59.64511","33.52937"
"483029","Tikhoretsk","Tikhoretsk","45.85472","40.12528"
"483137","Teykovo","Teykovo","56.85796","40.53692"
"483495","Terek","Terek","43.48333","44.13611"
"483551","Tyoply Stan","Tyoply Stan","55.62047","37.49338"
"483661","Temryuk","Temryuk","45.27055","37.38716"
"483826","Tekstil'shchiki","Tekstil'shchiki","55.70033","37.74271"
"483883","Tbilisskaya","Tbilisskaya","45.36333","40.19000"
"484646","Tambov","Tambov","52.73169","41.44326"
"484856","Agidel'","Agidel'","55.90770","53.93550"
"484907","Taganrog","Taganrog","47.23617","38.89688"
"484912","Taganskiy","Taganskiy","55.73333","37.66667"
"484972","Syzran'","Syzran'","53.15850","48.46810"
"485239","Syktyvkar","Syktyvkar","61.67642","50.80994"
"485432","Svobody","Svobody","44.02556","43.05028"
"485630","Sviblovo","Sviblovo","55.85000","37.63333"
"485639","Svetogorsk","Svetogorsk","61.11213","28.86321"
"485660","Svetlyy","Svetlyy","54.67501","20.13473"
"485698","Svetlograd","Svetlograd","45.33528","42.85472"
"485871","Suvorovskaya","Suvorovskaya","44.19010","42.65950"
"485888","Suvorov","Suvorov","54.12230","36.49657"
"486071","Surovikino","Surovikino","48.60734","42.84621"
"486110","Surkhakhi","Surkhakhi","43.18750","44.90194"
"486665","Sukhinichi","Sukhinichi","54.09989","35.34254"
"486968","Stupino","Stupino","54.90083","38.07083"
"487095","Strunino","Strunino","56.37328","38.58321"
"487147","Stroitel'","Stroitel'","50.78543","36.48310"
"487150","Strogino","Strogino","55.81838","37.41224"
"487495","Sterlitamak","Sterlitamak","53.62462","55.95015"
"487846","Stavropol'","Stavropol'","45.04280","41.97340"
"487928","Staryy Oskol","Staryy Oskol","51.29667","37.84167"
"488635","Staroshcherbinovskaya","Staroshcherbinovskaya","46.63110","38.67420"
"488742","Starominskaya","Starominskaya","46.53000","39.04972"
"488852","Starodub","Starodub","52.58444","32.76333"
"489088","Staraya Russa","Staraya Russa","57.99439","31.36081"
"489162","Staraya Kupavna","Staraya Kupavna","55.80799","38.18050"
"489226","Staraya Derevnya","Staraya Derevnya","59.98834","30.24296"
"490067","Sovetsk","Sovetsk","57.58475","48.95844"
"490068","Sovetsk","Sovetsk","55.08392","21.87851"
"490172","Sosnovyy Bor","Sosnovyy Bor","59.89960","29.08574"
"490377","Sosnovaya Polyana","Sosnovaya Polyana","59.83528","30.14667"
"490391","Sosnogorsk","Sosnogorsk","63.60229","53.88175"
"490466","Sortavala","Sortavala","61.71233","30.70953"
"490554","Sorochinsk","Sorochinsk","52.43380","53.15830"
"490971","Solntsevo","Solntsevo","55.63711","37.38115"
"490996","Solnechnogorsk","Solnechnogorsk","56.18333","36.98333"
"491019","Sol'-Iletsk","Sol'-Iletsk","51.16310","54.99176"
"491023","Solikamsk","Solikamsk","59.63160","56.76850"
"491250","Sokol'niki","Sokol'niki","55.80202","37.67159"
"491280","Sokol","Sokol","55.80000","37.51667"
"491281","Sokol","Sokol","59.46167","40.12056"
"491352","Sofrino","Sofrino","56.15000","37.93333"
"491422","Sochi","Sochi","43.59917","39.72569"
"491480","Sobinka","Sobinka","55.98553","40.01111"
"491687","Smolensk","Smolensk","54.78180","32.04010"
"491882","Slobodskoy","Slobodskoy","58.73222","50.17722"
"491895","Slobodka","Slobodka","55.86667","37.58333"
"492094","Slavyansk-na-Kubani","Slavyansk-na-Kubani","45.25580","38.12560"
"492162","Slantsy","Slantsy","59.11817","28.09137"
"492376","Skopin","Skopin","53.82486","39.55053"
"492448","Skhodnya","Skhodnya","55.94806","37.29778"
"492944","Sim","Sim","54.99300","57.69820"
"493160","Sibay","Sibay","52.71806","58.66583"
"493231","Shuya","Shuya","56.84865","41.38833"
"493316","Shushary","Shushary","59.80917","30.38167"
"493463","Shumerlya","Shumerlya","55.50050","46.41288"
"493702","Mikhaylovsk","Mikhaylovsk","45.12833","42.02556"
"494427","Shilovo","Shilovo","54.32040","40.87400"
"495062","Sheksna","Sheksna","59.20998","38.51066"
"495112","Shebekino","Shebekino","50.40967","36.91360"
"495136","Shchukino","Shchukino","55.80000","37.45000"
"495206","Shchigry","Shchigry","51.87555","36.90432"
"495260","Shcherbinka","Shcherbinka","55.49972","37.55972"
"495344","Shchelkovo","Shchelkovo","55.92497","37.97218"
"495394","Shchekino","Shchekino","54.00513","37.52194"
"495518","Shatura","Shatura","55.57253","39.53682"
"495619","Shar'ya","Shar'ya","58.36909","45.51558"
"495957","Shali","Shali","43.14806","45.90194"
"496012","Shakhun'ya","Shakhun'ya","57.67579","46.61136"
"496015","Shakhty","Shakhty","47.70911","40.21443"
"496267","Severskaya","Severskaya","44.85407","38.67686"
"496269","Severo-Zadonsk","Severo-Zadonsk","54.03481","38.40172"
"496275","Severoural'sk","Severoural'sk","60.15328","59.95205"
"496278","Severomorsk","Severomorsk","69.06889","33.41622"
"496285","Severodvinsk","Severodvinsk","64.56350","39.83020"
"496348","Severnyy","Severnyy","55.93583","37.54889"
"496456","Setun'","Setun'","55.71667","37.41667"
"496478","Sestroretsk","Sestroretsk","60.09801","29.96378"
"496519","Sertolovo","Sertolovo","60.14440","30.20165"
"496527","Serpukhov","Serpukhov","54.91578","37.41114"
"496638","Sergiyev Posad","Sergiyev Posad","56.30000","38.13333"
"496802","Sergach","Sergach","55.53079","45.46611"
"496934","Serdobsk","Serdobsk","52.45861","44.21689"
"497206","Semiluki","Semiluki","51.68525","39.02787"
"497218","Semikarakorsk","Semikarakorsk","47.51943","40.81120"
"497271","Semenovskoye","Semenovskoye","55.68333","37.55000"
"497450","Semenov","Semenov","56.78749","44.49297"
"497610","Sel'tso","Sel'tso","53.36831","34.10328"
"497927","Segezha","Segezha","63.74147","34.32218"
"498418","Satka","Satka","55.04250","59.04000"
"498525","Sarov","Sarov","54.93583","43.32352"
"498677","Saratov","Saratov","51.54056","46.00861"
"498687","Sarapul","Sarapul","56.47633","53.79782"
"498698","Saransk","Saransk","54.18380","45.17490"
"498708","Saraktash","Saraktash","51.78771","56.36091"
"498817","Saint Petersburg","Saint Petersburg","59.93863","30.31413"
"499099","Samara","Samara","53.20007","50.15000"
"499161","Sal'sk","Sal'sk","46.47470","41.54114"
"499292","Salavat","Salavat","53.38365","55.90773"
"499452","Safonovo","Safonovo","55.15000","33.21667"
"499717","Rzhev","Rzhev","56.26241","34.32817"
"499975","Rybnoye","Rybnoye","54.72774","39.51731"
"500004","Rybinsk","Rybinsk","58.04460","38.84259"
"500019","Rybatskoye","Rybatskoye","59.83930","30.49873"
"500047","Ryazhsk","Ryazhsk","53.70380","40.11090"
"500096","Ryazan'","Ryazan'","54.62690","39.69160"
"500299","Ruzayevka","Ruzayevka","54.06387","44.95090"
"500843","Rublevo","Rublevo","55.78514","37.35481"
"500886","Rtishchevo","Rtishchevo","52.26041","43.78745"
"501175","Rostov-na-Donu","Rostov-na-Donu","47.23135","39.72328"
"501183","Rostov","Rostov","57.19140","39.41394"
"501187","Rostokino","Rostokino","55.83333","37.66667"
"501215","Rossosh'","Rossosh'","51.12090","38.51160"
"501231","Rossosh'","Rossosh'","50.19828","39.56726"
"501283","Roslavl'","Roslavl'","53.95278","32.86389"
"501320","Roshal'","Roshal'","55.66853","39.87488"
"501730","Rodniki","Rodniki","57.10513","41.73048"
"502011","Revda","Revda","56.80097","59.93028"
"502018","Reutov","Reutov","55.76111","37.85750"
"502400","Razumnoye","Razumnoye","50.53439","36.68462"
"502540","Rayevskiy","Rayevskiy","54.06580","54.94680"
"502793","Rasskazovo","Rasskazovo","52.65599","41.88461"
"502965","Ramenskoye","Ramenskoye","55.56694","38.23028"
"502971","Ramenki","Ramenki","55.70000","37.50000"
"503550","Pyatigorsk","Pyatigorsk","44.04861","43.05944"
"503977","Pushkino","Pushkino","56.01722","37.86667"
"504003","Pushkin","Pushkin","59.71417","30.39642"
"504042","Pushchino","Pushchino","54.83373","37.61138"
"504250","Pugachev","Pugachev","52.01333","48.80250"
"504341","Pskov","Pskov","57.81360","28.34960"
"504576","Protvino","Protvino","54.86821","37.21583"
"504831","Proletarsk","Proletarsk","46.70289","41.72717"
"504935","Prokhladnyy","Prokhladnyy","43.75741","44.02970"
"505014","Priyutovo","Priyutovo","53.90000","53.93333"
"505057","Privolzhskiy","Privolzhskiy","51.40944","46.04833"
"505060","Privolzhsk","Privolzhsk","57.38698","41.28666"
"505230","Priozersk","Priozersk","61.03928","30.12907"
"505259","Primorsko-Akhtarsk","Primorsko-Akhtarsk","46.04970","38.17470"
"505421","Pridonskoy","Pridonskoy","51.68406","39.07270"
"505806","Povorino","Povorino","51.19450","42.24570"
"506043","Kotlovka","Kotlovka","55.65928","37.60404"
"506117","Annino","Annino","55.58333","37.60000"
"506762","Polyarnyye Zori","Polyarnyye Zori","67.36611","32.49806"
"506763","Polyarnyy","Polyarnyy","69.19889","33.44778"
"507338","Pokrovskoye-Streshnevo","Pokrovskoye-Streshnevo","55.80797","37.45814"
"507599","Pokrov","Pokrov","55.91797","39.17242"
"507624","Pokhvistnevo","Pokhvistnevo","53.65237","52.12738"
"508034","Podporozh'ye","Podporozh'ye","60.91124","34.17064"
